年月,房屋類型,地址,屋齡,格局,出售樓層_總樓層,建物坪數,土地坪數,車位坪數,車位總價,每坪單價,成交總價,googleAPI_return_Address,lat,lng,street,date
10401(實價),華廈,嘉義市嘉義市永康二街1~30號,22.7,2房/1廳/1衛,6 /共7層,25.93,4.43,--,#NAME?,0.8,22萬,600台灣嘉義市西區永康二街8-14號,23.4751797,120.4243676,磚?里,2015/1/1
10401(實價),透天厝,嘉義市嘉義市下埤里賢達路501巷1~30號,9.5,4房/2廳/3衛,1 /共3層,54.07,0,--,#NAME?,1.8,100萬,600台灣嘉義市西區賢達路17號,23.4955988,120.4113762,下埤里,2015/1/1
10401(實價),住宅大樓,嘉義市嘉義市永福一街1~30號,20.1,3房/2廳/2衛,8 /共13層,44.28,5.35,--,#NAME?,10.1,449萬,600台灣嘉義市西區永福一街22號,23.4726134,120.4252421,磚?里,2015/1/1
10401(實價),住宅大樓(含車位),嘉義市嘉義市文雅街150巷1~30號,19.3,3房/2廳/2衛,10 /共13層,45.09,6.54,--,#NAME?,10.2,460萬,600台灣嘉義市東區文雅街140巷11號,23.4840615,120.4853228,文雅里,2015/1/1
10401(實價),住宅大樓,嘉義市嘉義市福州七街61~90號,21.3,3房/2廳/2衛,5 /共12層,38.21,4.34,--,#NAME?,10.2,390萬,600台灣嘉義市西區福州七街61號,23.462024,120.432825,福民里,2015/1/1
10401(實價),住宅大樓(含車位),嘉義市嘉義市忠孝路790之61~90號,19.3,3房/2廳/2衛,1 /共11層,35.11,5.08,--,#NAME?,10.3,360萬,600台灣嘉義市東區忠孝路80號,23.478665,120.4545405,民族里,2015/1/1
10401(實價),透天厝,嘉義市嘉義市信興街76巷11弄1~30號,23.6,4房/2廳/3衛,1 /共4層,51.55,22.08,--,#NAME?,10.3,530萬,600台灣嘉義市東區信興街73巷3弄30號,23.4653627,120.4583439,頂寮里,2015/1/1
10401(實價),華廈,嘉義市嘉義市北榮街151~180號,19.6,5房/1廳/2衛,2 /共6層,32.54,6.3,--,#NAME?,10.4,340萬,600台灣嘉義市西區北榮街180號,23.4805071,120.4442918,番社里,2015/1/1
10401(實價),住宅大樓,嘉義市嘉義市德明路61~90號,19.4,3房/2廳/1衛,5 /共18層,34.14,2.76,--,#NAME?,10.5,360萬,600台灣嘉義市西區德明路90號,23.4814836,120.4320387,福全里,2015/1/1
10401(實價),住宅大樓,嘉義市嘉義市新生路571~600號,19.3,3房/2廳/2衛,11 /共12層,42.42,5.75,--,#NAME?,10.6,450萬,600台灣嘉義市東區新生路564-568號,23.4920074,120.4581246,太平里,2015/1/1
10401(實價),透天厝,嘉義市嘉義市大業街40巷1~30號,41.2,3房/2廳/2衛,1 /共2層,22.32,23.6,--,#NAME?,10.7,238萬,600台灣嘉義市東區大業街127巷30號,23.4608867,120.4527363,安業里,2015/1/1
10401(實價),住宅大樓,嘉義市嘉義市德明路61~90號,19.4,2房/1廳/1衛,11 /共18層,25.08,1.88,--,#NAME?,10.8,270萬,600台灣嘉義市西區德明路90號,23.4814836,120.4320387,福全里,2015/1/1
10401(實價),店面(店鋪),嘉義市嘉義市延平街121~150號,38.3,3房/3廳/2衛,1 /共3層,49.26,15.13,--,#NAME?,10.8,530萬,600台灣嘉義市東區延平街150號,23.4771382,120.4532439,過溝里,2015/1/1
10401(實價),透天厝,嘉義市嘉義市撫順一街31~60號,40.3,3房/1廳/1衛,1 /共2層,9.18,10.99,--,#NAME?,10.9,100萬,600台灣嘉義市西區撫順一街31號,23.4905272,120.4399009,新厝里,2015/1/1
10401(實價),店面(店鋪),嘉義市嘉義市文化路91~120號,58.8,0房/0廳/0衛,1 /共2層,32.07,20.87,--,#NAME?,103.8,3328萬,600台灣嘉義市西區文化路91號,23.4781381,120.4497459,文化里,2015/1/1
10401(實價),店面(店鋪),嘉義市嘉義市文化路151~180號,59,1房/1廳/1衛,1 /共2層,33.14,17.24,--,#NAME?,105.6,3500萬,600台灣嘉義市西區文化路151號,23.4803561,120.4492909,國華里,2015/1/1
10401(實價),住宅大樓,嘉義市嘉義市保建街31~60號,21.6,3房/2廳/2衛,11 /共12層,34.3,5.79,--,#NAME?,11.4,390萬,600台灣嘉義市東區保建街60號,23.5006199,120.4530035,後湖里,2015/1/1
10401(實價),住宅大樓,嘉義市嘉義市德惠街31~60號,20.5,3房/2廳/23衛,1 /共14層,53.35,4.37,--,#NAME?,11.4,610萬,600台灣嘉義市西區德惠街32-34號,23.4837156,120.432457,竹圍里,2015/1/1
10401(實價),透天厝,嘉義市嘉義市北港路1~30號,46.8,3房/1廳/2衛,1 /共2層,37.98,22.08,--,#NAME?,11.5,438萬,600台灣嘉義市西區北港路30號,23.4756655,120.4355605,福全里,2015/1/1
10401(實價),透天厝,嘉義市嘉義市大溪路428巷61~90號,11.8,4房/2廳/3衛,1 /共3層,41.33,26.43,--,#NAME?,11.6,480萬,600台灣嘉義市西區大溪路428巷57號,23.4820935,120.4070591,大溪里,2015/1/1
10401(實價),透天厝,嘉義市嘉義市軍輝路162巷1~30號,38.4,4房/3廳/2衛,1 /共2層,25.63,21.78,--,#NAME?,11.8,303萬,600台灣嘉義市東區軍輝路162巷11號,23.4564755,120.4608005,興仁里,2015/1/1
10401(實價),華廈(含車位),嘉義市嘉義市永康二街1~30號,22.7,2房/1廳/1衛,3 /共7層,28.72,5.59,--,#NAME?,12.2,350萬,600台灣嘉義市西區永康二街8-14號,23.4751797,120.4243676,磚?里,2015/1/1
10401(實價),透天厝,嘉義市嘉義市林森東路163巷91~120號,9.5,3房/2廳/4衛,1 /共4層,73.19,27.23,--,#NAME?,12.4,910萬,600台灣嘉義市東區林森東路163巷91號,23.4887993,120.4609102,太平里,2015/1/1
10401(實價),透天厝,嘉義市嘉義市新生路386巷1~30號,40.2,3房/2廳/2衛,1 /共2層,23.08,17.85,--,#NAME?,12.4,286萬,600台灣嘉義市東區Y崗,23.4858515,120.4604334,太平里,2015/1/1
10401(實價),透天厝,嘉義市嘉義市自治里10鄰蘭井街318巷1~30號,47,3房/1廳/1衛,1 /共2層,22.98,19.66,--,#NAME?,12.6,290萬,找不到位址,無,無,無,2015/1/1
10401(實價),透天厝,嘉義市嘉義市忠孝路798巷15弄1~30號,7,4房/2廳/3衛,1 /共3層,54.6,30.24,--,#NAME?,12.6,688萬,600台灣嘉義市東區忠孝路522-1號,23.4939767,120.452811,仁義里,2015/1/1
10401(實價),透天厝,嘉義市嘉義市建成街58巷1~30號,51.6,2房/1廳/1衛,1 /共1層,13.69,16.94,--,#NAME?,12.8,175萬,600台灣嘉義市西區建成街58巷72號,23.4712729,120.440449,垂楊里,2015/1/1
10401(實價),透天厝,嘉義市嘉義市信義路83巷31~60號,27.9,3房/2廳/2衛,1 /共2層,31.12,20.87,--,#NAME?,12.9,400萬,600台灣嘉義市西區信義路47號,23.4743614,120.4344611,西平里,2015/1/1
10401(實價),透天厝,嘉義市嘉義市福州一街1~30號,26.1,4房/3廳/4衛,1 /共4層,57.6,25.41,--,#NAME?,12.9,745萬,600台灣嘉義市西區福州一街30號,23.4632758,120.434927,福民里,2015/1/1
10401(實價),透天厝,嘉義市嘉義市宣信街28巷1~30號,0.1,5房/2廳/5衛,1 /共3層,73.71,48.4,--,#NAME?,13.5,998萬,600台灣嘉義市東區宣信街30號,23.463079,120.4645467,芳安里,2015/1/1
10401(實價),透天厝,嘉義市嘉義市保安一路413巷31~60號,0.4,4房/2廳/3衛,1 /共4層,67.68,30.86,--,#NAME?,13.7,926萬,600台灣嘉義市西區保安一路60號,23.4937234,120.4406487,新厝里,2015/1/1
10401(實價),透天厝,嘉義市嘉義市松江二街31~60號,37.1,3房/2廳/2衛,1 /共2層,33.51,27.83,--,#NAME?,13.7,460萬,600台灣嘉義市西區松江二街26-33號,23.4931474,120.4416779,新厝里,2015/1/1
10401(實價),透天厝,嘉義市嘉義市吳鳳南路621巷1~30號,37.8,3房/2廳/2衛,1 /共2層,31.13,25.71,--,#NAME?,13.8,430萬,600台灣嘉義市東區吳鳳南路30號,23.4712666,120.4539625,豐年里,2015/1/1
10401(實價),透天厝,嘉義市嘉義市荖藤里3鄰荖藤宅31~60號,32.7,3房/2廳/2衛,1 /共2層,32.29,29.95,--,#NAME?,13.9,450萬,600台灣嘉義市東區20,23.5088651,120.4446987,荖藤里,2015/1/1
10401(實價),透天厝,嘉義市嘉義市湖子內路1~30號,29.3,4房/1廳/3衛,1 /共3層,67.86,30.55,--,#NAME?,13.9,940萬,600台灣嘉義市西區湖子內路24-32號,23.454535,120.4430195,湖內里,2015/1/1
10401(實價),透天厝,嘉義市嘉義市大雅路一段288巷116弄1~30號,1.3,4房/3廳/4衛,1 /共3層,60.22,33.5,--,#NAME?,14.1,850萬,600台灣嘉義市東區大雅路一段1號,23.479947,120.503839,盧厝里,2015/1/1
10401(實價),透天厝,嘉義市嘉義市彌陀路238巷33弄1~30號,36,4房/1廳/2衛,1 /共2層,40.05,31.46,--,#NAME?,14.5,580萬,600台灣嘉義市東區彌陀路238巷33弄35號,23.4740686,120.4640169,短竹里,2015/1/1
10401(實價),透天厝,嘉義市嘉義市北榮街61~90號,35.5,5房/2廳/3衛,1 /共5層,102.08,30.25,--,#NAME?,14.7,1500萬,600台灣嘉義市西區北榮街90號,23.4807766,120.4469119,番社里,2015/1/1
10401(實價),透天厝,嘉義市嘉義市建成街75巷31~60號,35.8,3房/2廳/2衛,1 /共2層,23.65,17.85,--,#NAME?,14.8,350萬,600台灣嘉義市西區建成街75巷32號,23.470646,120.4405943,垂楊里,2015/1/1
10401(實價),透天厝,嘉義市嘉義市大業街106巷86弄1~30號,8.8,4房/2廳/2衛,1 /共3層,52.83,23.38,--,#NAME?,14,738萬,600台灣嘉義市東區大業街106巷86弄12號,23.4644326,120.4526266,安業里,2015/1/1
10401(實價),透天厝,嘉義市嘉義市保義路108巷1~30號,0.2,4房/2廳/4衛,1 /共3層,59.94,30.1,--,#NAME?,15.1,905萬,600台灣嘉義市東區保義路108巷25號,23.5017464,120.4536756,後湖里,2015/1/1
10401(實價),透天厝,嘉義市嘉義市盧厝31~60號,14.6,4房/4廳/4衛,1 /共4層,112.66,101.08,--,#NAME?,15.3,1720萬,600台灣嘉義市東區保義路60巷17號,23.5013395,120.4532965,後湖里,2015/1/1
10401(實價),透天厝,嘉義市嘉義市永吉三街31~60號,0.3,5房/3廳/4衛,1 /共3層,73.55,38.42,--,#NAME?,15.4,1130萬,600台灣嘉義市西區永吉三街31號,23.4917574,120.437275,保生里,2015/1/1
10401(實價),透天厝,嘉義市嘉義市林森東路321巷11弄1~30號,31.9,4房/1廳/3衛,1 /共2層,35.47,28.44,--,#NAME?,15.5,550萬,600台灣嘉義市東區林森東路269巷1弄30號,23.4901012,120.4654374,新店里,2015/1/1
10401(實價),透天厝,嘉義市嘉義市長春二街91~120號,8.7,4房/2廳/3衛,1 /共3層,51.76,27.53,--,#NAME?,15.5,800萬,600台灣嘉義市西區長春二街94號,23.4895362,120.4368819,保生里,2015/1/1
10401(實價),透天厝,嘉義市嘉義市大賢路31~60號,0.3,5房/2廳/5衛,1 /共4層,85.31,42.4,--,#NAME?,15.9,1360萬,600台灣嘉義市西區大賢路31號,23.4625512,120.4161313,劉厝里,2015/1/1
10401(實價),透天厝,嘉義市嘉義市林森東路451~480號,9.8,5房/5廳/5衛,1 /共5層,78.08,43.41,--,#NAME?,16.1,1260萬,600台灣嘉義市東區林森東路480號,23.491523,120.4698939,圳頭里,2015/1/1
10401(實價),透天厝,嘉義市嘉義市西區大聖路151~180號,0.7,5房/2廳/3衛,1 /共4層,64.93,36.28,--,#NAME?,16.2,1050萬,600台灣嘉義市西區大聖路151號,23.4615756,120.4187189,劉厝里,2015/1/1
10401(實價),透天厝,嘉義市嘉義市東義路109巷1~30號,0.4,4房/3廳/5衛,1 /共3層,64.47,42.6,--,#NAME?,16.4,1059萬,600台灣嘉義市東區東義路109巷1號,23.4950314,120.4688871,後庄里,2015/1/1
10401(實價),透天厝,嘉義市嘉義市芳安路17巷31~60號,19.7,7房/1廳/4衛,1 /共3層,25.55,16.03,--,#NAME?,16.6,423萬,600台灣嘉義市東區芳安路17巷31號,23.4682874,120.4649603,芳草里,2015/1/1
10401(實價),透天厝,嘉義市嘉義市興中街121~150號,0.5,7房/1廳/7衛,1 /共5層,114.8,31.46,--,#NAME?,16.8,1930萬,600台灣嘉義市東區興中街150號,23.4803341,120.451168,中央里,2015/1/1
10401(實價),透天厝,嘉義市嘉義市文心街178巷1~30號,8.1,5房/2廳/4衛,1 /共4層,85.76,53.08,--,#NAME?,16,1370萬,600台灣嘉義市東區大雅路一段858巷33號,23.4819607,120.4847961,文雅里,2015/1/1
10401(實價),透天厝,嘉義市嘉義市義教街117巷61~90號,38,3房/2廳/2衛,1 /共1層,15.2,32.37,--,#NAME?,16,243萬,600台灣嘉義市東區義教街117巷63號,23.4943518,120.4660376,新店里,2015/1/1
10401(實價),透天厝,嘉義市嘉義市自立街31~60號,3.5,4房/2廳/3衛,1 /共3層,53.78,23.9,--,#NAME?,17.4,936萬,找不到位址,無,無,無,2015/1/1
10401(實價),透天厝,嘉義市嘉義市興業西路1~30號,39.2,4房/1廳/1衛,1 /共3層,50.33,13.92,--,#NAME?,17.5,880萬,600台灣嘉義市西區興業西路30號,23.4686948,120.445471,致遠里,2015/1/1
10401(實價),透天厝,嘉義市嘉義市東洋新?1~30號,7.3,4房/3廳/4衛,1 /共4層,70.95,27.83,--,#NAME?,17.6,1250萬,600台灣嘉義市東區文雅街,23.4837986,120.487306,文雅里,2015/1/1
10401(實價),套房,嘉義市嘉義市彌陀路31~60號,6.8,1房/1廳/1衛,2 /共4層,4.24,1.59,--,#NAME?,17.7,75萬,600台灣嘉義市東區彌陀路26號,23.4657296,120.4680298,短竹里,2015/1/1
10401(實價),透天厝,嘉義市嘉義市博東路43巷31~60號,11.3,5房/3廳/4衛,1 /共4層,58.86,28.19,--,#NAME?,17.8,1050萬,600台灣嘉義市東區博東路31號,23.4902813,120.4623139,新店里,2015/1/1
10401(實價),住宅大樓,嘉義市嘉義市雅竹路1~30號,6.9,4房/3廳/4衛,1 /共11層,77.36,12.19,--,#NAME?,18.1,1400萬,600台灣嘉義市東區雅竹路30號,23.4764591,120.4742352,長竹里,2015/1/1
10401(實價),透天厝,嘉義市嘉義市林森東路691巷259弄31~60號,46.8,0房/0廳/0衛,1 /共1層,19.72,32.67,--,#NAME?,18.2,359萬,600台灣嘉義市東區林森東路60號,23.4867484,120.4566382,林森里,2015/1/1
10401(實價),透天厝,嘉義市嘉義市西門街181~210號,0.7,5房/3廳/4衛,1 /共4層,94.01,39.33,--,#NAME?,18.6,1750萬,600台灣嘉義市西區西門街185號,23.4782208,120.4430635,書院里,2015/1/1
10401(實價),透天厝,嘉義市嘉義市劉厝路181~210號,5.7,4房/3廳/3衛,1 /共4層,71.11,33.22,--,#NAME?,18.8,1338萬,600台灣嘉義市西區劉厝路182號,23.4641705,120.4185639,劉厝里,2015/1/1
10401(實價),透天厝,嘉義市嘉義市大富三街31~60號,9.3,5房/3廳/4衛,1 /共4層,66.6,42.94,--,#NAME?,18.8,1250萬,600台灣嘉義市西區大富三街52-66號,23.46367,120.4140046,劉厝里,2015/1/1
10401(實價),透天厝,嘉義市嘉義市民樂街61~90號,40.8,2房/2廳/2衛,1 /共2層,33.63,19.36,--,#NAME?,18.9,635萬,600台灣嘉義市東區民樂街61號,23.4812002,120.4583705,東興里,2015/1/1
10401(實價),透天厝,嘉義市嘉義市世賢路二段151~180號,4,5房/2廳/4衛,1 /共4層,72.48,28.13,--,#NAME?,19.3,1398萬,600台灣嘉義市西區世賢路二段151號,23.4751895,120.4212714,港坪里,2015/1/1
10401(實價),透天厝,嘉義市嘉義市永吉四街1~30號,1.1,4房/3廳/5衛,1 /共4層,96.05,51.73,--,#NAME?,19.3,1850萬,600台灣嘉義市西區永吉四街9號,23.4917386,120.4363529,保生里,2015/1/1
10401(實價),透天厝,嘉義市嘉義市德安路121~150號,9.7,5房/2廳/4衛,1 /共4層,66.5,30.55,--,#NAME?,19.9,1320萬,600台灣嘉義市西區德安路120號,23.4841663,120.4293902,保福里,2015/1/1
10401(實價),透天厝,嘉義市嘉義市立仁路42巷1~30號,0.2,0房/0廳/0衛,1 /共3層,58.99,30.25,--,#NAME?,20.4,1205萬,600台灣嘉義市東區立仁路141-1號,23.4641073,120.4622139,芳安里,2015/1/1
10401(實價),透天厝,嘉義市嘉義市八德路271~300號,1,4房/3廳/3衛,1 /共3層,53,23.29,--,#NAME?,20.9,1108萬,600台灣嘉義市西區八德路300號,23.490958,120.430367,保安里,2015/1/1
10401(實價),透天厝,嘉義市嘉義市吳鳳南路224巷1~30號,41.3,4房/2廳/5衛,1 /共2層,24.5,18.15,--,#NAME?,21.6,530萬,600台灣嘉義市東區吳鳳南路30號,23.4712666,120.4539625,豐年里,2015/1/1
10401(實價),透天厝,嘉義市嘉義市永樂五街1~30號,1.1,5房/2廳/5衛,1 /共4層,82.55,32.97,--,#NAME?,21.8,1800萬,600台灣嘉義市西區永樂五街38號,23.475569,120.4223884,港坪里,2015/1/1
10401(實價),透天厝,嘉義市嘉義市民族路511~540號,36.5,4房/2廳/2衛,1 /共4層,100.2,27.83,--,#NAME?,21,2100萬,600台灣嘉義市西區大華公路540號,23.4760064,120.4479422,文化里,2015/1/1
10401(實價),店面(店鋪),嘉義市嘉義市興達路301~330號,7.9,5房/2廳/2衛,1 /共4層,130.35,54.45,--,#NAME?,22.2,2900萬,600台灣嘉義市西區興達路305號,23.4870227,120.4374614,保安里,2015/1/1
10401(實價),透天厝(含車位),嘉義市嘉義市日新街55巷1~30號,26,4房/2廳/3衛,1 /共2層,35.3,36.6,--,#NAME?,22.7,800萬,600台灣嘉義市東區日新街1號,23.466713,120.4684457,短竹里,2015/1/1
10401(實價),透天厝,嘉義市嘉義市忠孝路541~570號,10,2房/2廳/4衛,1 /共4層,60.89,21.18,--,#NAME?,22,1338萬,600台灣嘉義市東區忠孝路552-4號,23.4943916,120.4526888,仁義里,2015/1/1
10401(實價),透天厝,嘉義市嘉義市大雅路二段578巷1~30號,36.3,6房/2廳/3衛,1 /共2層,45.67,37.21,--,#NAME?,23.8,1089萬,600台灣嘉義市東區大雅路二段386巷1號,23.47769,120.473753,長竹里,2015/1/1
10401(實價),透天厝,嘉義市嘉義市林森西路541~570號,46.8,0房/0廳/0衛,1 /共2層,61.03,29.65,--,#NAME?,23.8,1450萬,600台灣嘉義市西區林森西路570號,23.4794576,120.4419948,番社里,2015/1/1
10401(實價),店面(店鋪),嘉義市嘉義市新榮路121~150號,--,4房/2廳/3衛,3 /共3層,21.6,11.63,--,#NAME?,24.2,523萬,600台灣嘉義市西區新榮路121號,23.4737573,120.4446604,新富里,2015/1/1
10401(實價),透天厝,嘉義市嘉義市光彩街541~570號,0.6,13房/2廳/15衛,1 /共5層,141.43,34.79,--,#NAME?,24,3400萬,600台灣嘉義市西區光彩街541號,23.477635,120.4437435,書院里,2015/1/1
10401(實價),透天厝,嘉義市嘉義市金龍街91~120號,0,5房/2廳/6衛,1 /共5層,104.5,61.13,--,#NAME?,27.8,2900萬,600台灣嘉義市東區金龍街91號,23.4774845,120.4660093,東川里,2015/1/1
10401(實價),透天厝,嘉義市嘉義市光彩街541~570號,0.6,10房/2廳/12衛,1 /共5層,103.23,27.77,--,#NAME?,28.1,2900萬,600台灣嘉義市西區光彩街541號,23.477635,120.4437435,書院里,2015/1/1
10401(實價),透天厝,嘉義市嘉義市遼寧二街61~90號,37.9,3房/2廳/2衛,1 /共2層,18,20.27,--,#NAME?,28.8,518萬,600台灣嘉義市西區遼寧二街61號,23.4931406,120.4397326,新厝里,2015/1/1
10401(實價),透天厝,嘉義市嘉義市上海路211~240號,30.3,6房/2廳/2衛,1 /共2層,35.01,25.11,--,#NAME?,28,980萬,600台灣嘉義市西區上海路212-224號,23.4671226,120.4332838,車店里,2015/1/1
10401(實價),透天厝,嘉義市嘉義市文雅街1巷1~30號,10.7,5房/2廳/3衛,1 /共5層,75.1,36.91,--,#NAME?,29.3,2200萬,600台灣嘉義市東區文雅街140巷11號,23.4840615,120.4853228,文雅里,2015/1/1
10401(實價),套房,嘉義市嘉義市彌陀路121~150號,18.8,1房/0廳/1衛,4 /共20層,15.17,0.99,--,#NAME?,3.3,50萬,600台灣嘉義市東區彌陀路121號,23.4666592,120.4667133,芳草里,2015/1/1
10401(實價),住宅大樓(含車位),嘉義市嘉義市世賢路三段151~180號,21.3,3房/2廳/2衛,6 /共12層,74.35,1.85,--,#NAME?,3.7,275萬,600台灣嘉義市西區世賢路三段151號,23.463308,120.4308058,福民里,2015/1/1
10401(實價),透天厝,嘉義市嘉義市維新路31~60號,41.1,3房/1廳/2衛,1 /共2層,38.53,26.32,--,#NAME?,31.1,1200萬,600台灣嘉義市東區維新路21-39號,23.4802796,120.4589605,華南里,2015/1/1
10401(實價),店面(店鋪),嘉義市嘉義市文化路271~300號,0,5房/4廳/7衛,1 /共5層,107.28,30.21,--,#NAME?,31.4,3365萬,600台灣嘉義市東區文化路265-273號,23.4837062,120.4487044,北門里,2015/1/1
10401(實價),透天厝,嘉義市嘉義市吳鳳南路37巷1~30號,41.3,4房/2廳/3衛,1 /共2層,36.83,66.25,--,#NAME?,32.6,1200萬,600台灣嘉義市東區吳鳳南路30號,23.4712666,120.4539625,豐年里,2015/1/1
10401(實價),透天厝,嘉義市嘉義市友愛路181~210號,34.1,3房/2廳/2衛,1 /共3層,78.91,31.16,--,#NAME?,35.5,2800萬,600台灣嘉義市西區友愛路210號,23.4812677,120.4341069,竹圍里,2015/1/1
10401(實價),公寓,嘉義市嘉義市蘭州一街61~90號,30.9,2房/1廳/2衛,3 /共5層,26.49,9.89,--,#NAME?,3,80萬,600台灣嘉義市西區蘭州一街61號,23.4656166,120.4310834,車店里,2015/1/1
10401(實價),公寓,嘉義市嘉義市玉山路251巷37弄1~30號,22.2,2房/1廳/1衛,5 /共5層,30.46,12.42,--,#NAME?,4.3,130萬,600台灣嘉義市西區玉山路251巷37弄20號,23.4700941,120.425317,劉厝里,2015/1/1
10401(實價),透天厝,嘉義市嘉義市東洋新?1~30號,7.3,5房/2廳/4衛,1 /共4層,70.3,0,--,#NAME?,4.7,330萬,600台灣嘉義市東區文雅街,23.4837986,120.487306,文雅里,2015/1/1
10401(實價),華廈,嘉義市嘉義市忠孝路781~810號,19.3,2房/2廳/1衛,5 /共11層,28.29,4.52,--,#NAME?,4.8,135萬,600台灣嘉義市東區忠孝路782號,23.5097412,120.4461873,荖藤里,2015/1/1
10401(實價),店面(店鋪),嘉義市嘉義市友愛路181~210號,34.5,3房/2廳/2衛,1 /共2層,25.76,19.36,--,#NAME?,40.8,1050萬,600台灣嘉義市西區友愛路210號,23.4812677,120.4341069,竹圍里,2015/1/1
10401(實價),透天厝,嘉義市嘉義市友忠路827巷61~90號,25.8,7房/2廳/2衛,1 /共2層,80.84,43.96,--,#NAME?,4,326萬,600台灣嘉義市西區友忠路827巷61號,23.4879842,120.4410281,重興里,2015/1/1
10401(實價),華廈,嘉義市嘉義市北榮街121~150號,24,5房/1廳/1衛,6 /共7層,85.3,98.62,--,#NAME?,5.1,435萬,600台灣嘉義市西區北榮街78-82號,23.4807719,120.4478229,國華里,2015/1/1
10401(實價),透天厝,嘉義市嘉義市東義路109巷16弄1~30號,20.6,4房/2廳/2衛,1 /共4層,61.11,28.38,--,#NAME?,5.7,350萬,600台灣嘉義市東區東義路109巷1號,23.4950314,120.4688871,後庄里,2015/1/1
10401(實價),透天厝,嘉義市嘉義市新民路811~840號,49.8,1房/1廳/1衛,1 /共1層,6.9,0,--,#NAME?,5.8,40萬,600台灣嘉義市西區新民路840號,23.4715169,120.4399147,垂楊里,2015/1/1
10401(實價),透天厝,嘉義市嘉義市溪興街211~240號,32.1,4房/3廳/2衛,1 /共5層,58.77,20.18,--,#NAME?,6.1,360萬,600台灣嘉義市東區溪興街215號,23.4544097,120.4555303,興村里,2015/1/1
10401(實價),華廈,嘉義市嘉義市北榮街121~150號,24,4房/2廳/3衛,5 /共7層,85.3,12.33,--,#NAME?,6.2,525萬,600台灣嘉義市西區北榮街78-82號,23.4807719,120.4478229,國華里,2015/1/1
10401(實價),住宅大樓,嘉義市嘉義市玉山路240巷1~30號,20.5,3房/1廳/2衛,8 /共12層,32.35,3.03,--,#NAME?,6.2,200萬,600台灣嘉義市西區玉山路1號,23.473261,120.4319371,磚瑤里,2015/1/1
10401(實價),透天厝,嘉義市嘉義市北港路256巷31~60號,36.2,3房/2廳/2衛,1 /共2層,29.33,25.41,--,#NAME?,6.2,182萬,600台灣嘉義市西區北港路256巷23號,23.4792652,120.4333007,福全里,2015/1/1
10401(實價),住宅大樓,嘉義市嘉義市吳鳳南路365巷76弄1~30號,21.2,3房/2廳/2衛,8 /共13層,43.42,6.97,--,#NAME?,6.2,268萬,600台灣嘉義市東區吳鳳南路365巷76弄5號,23.4643739,120.4572401,安寮里,2015/1/1
10401(實價),套房,嘉義市嘉義市小雅路181~210號,21.6,1房/1廳/1衛,10 /共16層,14.01,1.66,--,#NAME?,6.3,88萬,600台灣嘉義市東區小雅路185號,23.4726044,120.4740688,蘭潭里,2015/1/1
10401(實價),華廈,嘉義市嘉義市中山路481~510號,31.4,7房/4廳/4衛,3 /共8層,95.77,13.78,--,#NAME?,6.5,624萬,600台灣嘉義市西區中山路471-495號,23.4795113,120.4454144,番社里,2015/1/1
10401(實價),華廈,嘉義市嘉義市泰瑞一街61~90號,21.4,4房/1廳/2衛,4 /共7層,39.11,6.99,--,#NAME?,6.6,260萬,600台灣嘉義市西區泰瑞一街48號,23.4838433,120.4257913,福安里,2015/1/1
10401(實價),透天厝,嘉義市嘉義市大雅路一段368巷66弄1~30號,19.1,4房/3廳/3衛,1 /共4層,94.75,39.41,--,#NAME?,6.7,635萬,600台灣嘉義市東區大雅路一段1號,23.479947,120.503839,盧厝里,2015/1/1
10401(實價),透天厝,嘉義市嘉義市培元里新榮路83巷1~30號,50.2,3房/2廳/2衛,1 /共2層,20.23,15.13,--,#NAME?,6.7,135萬,600台灣嘉義市西區新榮路49巷2號,23.470887,120.444873,培元里,2015/1/1
10401(實價),華廈,嘉義市嘉義市自強街195巷31~60號,24.2,3房/1廳/1衛,7 /共8層,27.16,4.04,--,#NAME?,6.8,185萬,600台灣嘉義市西區自強街195巷27號,23.464458,120.4203273,劉厝里,2015/1/1
10401(實價),住宅大樓,嘉義市嘉義市德明路61~90號,19.4,3房/2廳/2衛,9 /共19層,36.5,2.89,--,#NAME?,6.8,250萬,600台灣嘉義市西區德明路90號,23.4814836,120.4320387,福全里,2015/1/1
10401(實價),華廈,嘉義市嘉義市南京路20巷31~60號,19.8,3房/2廳/2衛,5 /共10層,40.48,7.23,--,#NAME?,6.9,278萬,600台灣嘉義市西區南京路20巷19-57號,23.4566788,120.4425104,獅子里,2015/1/1
10401(實價),華廈,嘉義市嘉義市興村街1~30號,30.1,3房/2廳/1衛,2 /共7層,30.66,6.24,--,#NAME?,6,185萬,600台灣嘉義市西區博愛路一段482巷30號,23.4864012,120.4425852,重興里,2015/1/1
10401(實價),套房,嘉義市嘉義市建成街151~180號,23.5,1房/0廳/1衛,2 /共6層,16.53,3.39,--,#NAME?,6,100萬,600台灣嘉義市西區建成街151號,23.4698551,120.4385426,垂楊里,2015/1/1
10401(實價),華廈,嘉義市嘉義市友愛路1~30號,21.6,2房/2廳/1衛,5 /共7層,28.04,4.73,--,#NAME?,7.1,200萬,600台灣嘉義市西區友愛路30號,23.4921539,120.4441036,湖邊里,2015/1/1
10401(實價),住宅大樓,嘉義市嘉義市忠孝路781~810號,19.3,3房/2廳/2衛,3 /共11層,39.47,5.64,--,#NAME?,7.1,280萬,600台灣嘉義市東區忠孝路782號,23.5097412,120.4461873,荖藤里,2015/1/1
10401(實價),華廈,嘉義市嘉義市泰瑞四街61~90號,16.6,3房/2廳/2衛,4 /共6層,41.79,9.27,--,#NAME?,7.2,300萬,600台灣嘉義市西區泰瑞四街78號,23.4854296,120.4269669,福安里,2015/1/1
10401(實價),公寓,嘉義市嘉義市芳安路337巷1~30號,34.4,3房/2廳/2衛,4 /共5層,33.13,6.55,--,#NAME?,7.2,238萬,600台灣嘉義市東區芳安路337巷2-8號,23.4679212,120.4562516,安業里,2015/1/1
10401(實價),華廈,嘉義市嘉義市嘉北街12巷31~60號,24.3,3房/1廳/1衛,5 /共7層,25.78,4.5,--,#NAME?,7.3,188萬,600台灣嘉義市東區嘉北街18號,23.4938455,120.4559574,頂庄里,2015/1/1
10401(實價),套房(含車位),嘉義市嘉義市友愛路541~570號,19.5,1房/1廳/1衛,12 /共14層,34.34,6.79,--,#NAME?,7.3,250萬,600台灣嘉義市西區友愛路570號,23.4900956,120.4362421,保生里,2015/1/1
10401(實價),住宅大樓,嘉義市嘉義市小雅路361~390號,21.6,2房/1廳/1衛,8 /共12層,20.29,3.48,--,#NAME?,7.4,150萬,600台灣嘉義市東區小雅路382號,23.4765452,120.4703533,長竹里,2015/1/1
10401(實價),華廈,嘉義市嘉義市新建街31~60號,20.7,1房/1廳/1衛,6 /共7層,13.91,2.54,--,#NAME?,7.5,105萬,600台灣嘉義市西區新建街16號,23.468731,120.4387561,垂楊里,2015/1/1
10401(實價),透天厝,嘉義市嘉義市忠孝路781~810號,20.9,4房/3廳/3衛,1 /共3層,67.04,23.9,--,#NAME?,7.6,510萬,600台灣嘉義市東區忠孝路782號,23.5097412,120.4461873,荖藤里,2015/1/1
10401(實價),華廈,嘉義市嘉義市彌陀路238巷59弄1~30號,24.9,4房/2廳/2衛,2 /共7層,43.64,9.29,--,#NAME?,7.6,330萬,600台灣嘉義市東區彌陀路238巷7弄5號,23.4740199,120.4632164,短竹里,2015/1/1
10401(實價),公寓,嘉義市嘉義市中庄里臺斗街181~210號,30.6,3房/2廳/2衛,2 /共5層,33.01,9.24,--,#NAME?,7.6,250萬,600台灣嘉義市東區台斗街163號,23.494294,120.4510584,中庄里,2015/1/1
10401(實價),華廈(含車位),嘉義市長安街91~120號,21.3,3房/2廳/2衛,9 /共9層,38.83,6.51,--,#NAME?,7.6,295萬,600台灣嘉義市西區長安街91號,23.4852397,120.4443172,慶安里,2015/1/1
10401(實價),透天厝,嘉義市嘉義市竹圍里7鄰北鎮街11巷1~30號,44.6,1房/1廳/1衛,1 /共1層,11.79,17.55,--,#NAME?,7.6,90萬,600台灣嘉義市西區北鎮街15號,23.4886657,120.4316858,保福里,2015/1/1
10401(實價),住宅大樓,嘉義市嘉義市忠孝路781~810號,19.3,3房/2廳/2衛,8 /共11層,32.37,5.08,--,#NAME?,7.7,250萬,600台灣嘉義市東區忠孝路782號,23.5097412,120.4461873,荖藤里,2015/1/1
10401(實價),住宅大樓(含車位),嘉義市嘉義市泰山一街31~60號,20.1,3房/2廳/3衛,4 /共14層,57.92,6.91,--,#NAME?,7.7,446萬,600台灣嘉義市西區泰山一街60號,23.4852749,120.425294,福安里,2015/1/1
10401(實價),華廈,嘉義市嘉義市嘉北街12巷31~60號,24.3,2房/1廳/1衛,7 /共7層,25.78,2.77,--,#NAME?,7.7,199萬,600台灣嘉義市東區嘉北街18號,23.4938455,120.4559574,頂庄里,2015/1/1
10401(實價),住宅大樓(含車位),嘉義市嘉義市新榮路35巷1~30號,10.3,3房/2廳/2衛,9 /共14層,64.01,10.78,--,#NAME?,7.7,490萬,600台灣嘉義市西區新榮路1號,23.4689591,120.4451514,致遠里,2015/1/1
10401(實價),住宅大樓,嘉義市嘉義市世賢路三段211~240號,21.3,3房/1廳/2衛,6 /共12層,44.08,5.07,--,#NAME?,7.9,350萬,600台灣嘉義市西區世賢路三段205號,23.4623071,120.4320898,福民里,2015/1/1
10401(實價),透天厝,嘉義市嘉義市文化路694巷1~30號,33.4,5房/1廳/2衛,1 /共2層,28.36,26.92,--,#NAME?,7.9,224萬,600台灣嘉義市西區垂楊路402號,23.4741274,120.4497741,文化里,2015/1/1
10401(實價),華廈,嘉義市嘉義市建成街181~210號,23.5,1房/1廳/1衛,5 /共6層,12.86,2.6,--,#NAME?,7.9,102萬,600台灣嘉義市西區建成街195號,23.4687551,120.4375142,車店里,2015/1/1
10401(實價),住宅大樓,嘉義市嘉義市林森東路721~750號,11.8,3房/2廳/2衛,5 /共13層,52.97,13.11,--,#NAME?,7.9,420萬,600台灣嘉義市東區林森東路750號,23.4923366,120.4778693,圳頭里,2015/1/1
10401(實價),公寓,嘉義市嘉義市上海路91~120號,30.9,3房/2廳/2衛,3 /共5層,26.94,10.22,--,#NAME?,7,188萬,600台灣嘉義市西區上海路120號,23.4655479,120.432025,車店里,2015/1/1
10401(實價),公寓,嘉義市嘉義市中庄里海埔新村1~30號,31.8,3房/2廳/2衛,5 /共5層,25.13,11.51,--,#NAME?,7,175萬,找不到位址,無,無,無,2015/1/1
10401(實價),住宅大樓(含車位),嘉義市嘉義市林森東路721~750號,11.8,3房/2廳/2衛,5 /共13層,53.27,13.18,--,#NAME?,8.1,430萬,600台灣嘉義市東區林森東路750號,23.4923366,120.4778693,圳頭里,2015/1/1
10401(實價),透天厝,嘉義市嘉義市成仁街28巷1~30號,44.8,3房/2廳/2衛,1 /共2層,33.91,34.97,--,#NAME?,8.3,280萬,600台灣嘉義市東區成仁街30號,23.4760095,120.4526478,過溝里,2015/1/1
10401(實價),華廈(含車位),嘉義市嘉義市永康三街1~30號,22.6,3房/2廳/2衛,6 /共6層,45.7,8.43,--,#NAME?,8.3,380萬,600台灣嘉義市西區永康三街1號,23.4755222,120.425434,磚?里,2015/1/1
10401(實價),套房,嘉義市嘉義市和平路271~300號,19.7,1房/0廳/1衛,4 /共9層,8.1,0.94,--,#NAME?,8.4,68萬,600台灣嘉義市東區和平路269號,23.4800056,120.4567169,華南里,2015/1/1
10401(實價),住宅大樓,嘉義市嘉義市蘭井街331~360號,19.2,3房/2廳/2衛,3 /共16層,40.34,4.95,--,#NAME?,8.4,340萬,600台灣嘉義市西區蘭井街260號,23.4771987,120.4459214,西榮里,2015/1/1
10401(實價),套房,嘉義市嘉義市金龍街31~60號,21.1,1房/1廳/1衛,4 /共7層,18.56,3.76,--,#NAME?,8.4,155萬,600台灣嘉義市東區金龍街33-35號,23.4789667,120.4707766,東川里,2015/1/1
10401(實價),住宅大樓,嘉義市嘉義市八德路301~330號,20.2,3房/2廳/2衛,5 /共16層,34.21,3.63,--,#NAME?,8.5,290萬,600台灣嘉義市西區八德路330號,23.4912488,120.4302424,保安里,2015/1/1
10401(實價),套房,嘉義市嘉義市新榮路301~330號,21.1,1房/0廳/1衛,4 /共8層,11.9,1.19,--,#NAME?,8.5,101萬,600台灣嘉義市西區新榮路301號,23.4782794,120.4442146,西榮里,2015/1/1
10401(實價),華廈,嘉義市嘉義市福州一街61~90號,22.1,1房/1廳/1衛,5 /共6層,15.71,3.29,--,#NAME?,8.5,133萬,600台灣嘉義市西區福州一街48號,23.463242,120.434575,福民里,2015/1/1
10401(實價),住宅大樓,嘉義市嘉義市博東路151~180號,16.8,3房/1廳/2衛,8 /共22層,36.18,4.38,--,#NAME?,8.5,306萬,600台灣嘉義市東區博東路80-112號,23.4908563,120.4605339,太平里,2015/1/1
10401(實價),住宅大樓,嘉義市嘉義市八德路181~210號,21.1,3房/1廳/2衛,9 /共12層,37.97,4.77,--,#NAME?,8.7,330萬,600台灣嘉義市西區八德路174號,23.4871625,120.4306552,保福里,2015/1/1
10401(實價),住宅大樓,嘉義市嘉義市仁愛路331~360號,19,2房/1廳/2衛,7 /共14層,28.7,2.86,--,#NAME?,8.8,252萬,600台灣嘉義市西區仁愛路398-410號,23.4736556,120.4424013,新富里,2015/1/1
10401(實價),華廈,嘉義市嘉義市長安街91~120號,21.3,3房/1廳/2衛,3 /共9層,38.37,7.1,--,#NAME?,8.8,338萬,600台灣嘉義市西區長安街91號,23.4852397,120.4443172,慶安里,2015/1/1
10401(實價),住宅大樓,嘉義市嘉義市博愛路二段151~180號,15.8,1房/1廳/1衛,9 /共14層,11.84,1.16,--,#NAME?,8.9,105萬,600台灣嘉義市西區博愛路二段133號,23.4815231,120.4398559,,2015/1/1
10401(實價),華廈,嘉義市嘉義市興雅路91~120號,21.4,1房/1廳/1衛,8 /共9層,6.97,0.72,--,#NAME?,8.9,62萬,600台灣嘉義市西區興雅路91號,23.4828596,120.4330361,竹圍里,2015/1/1
10401(實價),華廈,嘉義市嘉義市仁愛路1~30號,23.4,0房/0廳/0衛,6 /共7層,28.32,5.09,--,#NAME?,8.9,250萬,600台灣嘉義市西區仁愛路1號,23.4666367,120.4406522,自強里,2015/1/1
10401(實價),華廈,嘉義市嘉義市中興路271巷1弄1~30號,21.5,3房/2廳/2衛,6 /共7層,47.58,8.53,--,#NAME?,8,380萬,600台灣嘉義市西區中興路1號,23.480175,120.4394459,後驛里,2015/1/1
10401(實價),公寓,嘉義市嘉義市忠孝路301~330號,26.2,4房/2廳/2衛,3 /共5層,45.73,13.18,--,#NAME?,8,368萬,600台灣嘉義市東區忠孝路106號,23.4913384,120.4531722,,2015/1/1
10401(實價),華廈(含車位),嘉義市嘉義市大同路481~510號,20.4,3房/2廳/3衛,2 /共8層,66.16,9.77,--,#NAME?,9.1,600萬,600台灣嘉義市西區大同路481號,23.4759013,120.4225765,港坪里,2015/1/1
10401(實價),華廈(含車位),嘉義市嘉義市大同路481~510號,20.4,4房/2廳/3衛,3 /共8層,66.16,9.77,--,#NAME?,9.1,600萬,600台灣嘉義市西區大同路481號,23.4759013,120.4225765,港坪里,2015/1/1
10401(實價),套房,嘉義市嘉義市新民路707巷1~30號,17.7,1房/1廳/1衛,3 /共7層,9.86,1.98,--,#NAME?,9.1,90萬,600台灣嘉義市西區新民路707巷2號,23.4690412,120.4395523,垂楊里,2015/1/1
10401(實價),住宅大樓,嘉義市嘉義市中正路391~420號,18.8,1房/1廳/1衛,11 /共11層,9.29,0.33,--,#NAME?,9.1,85萬,600台灣嘉義市西區中正路383-399號,23.4788021,120.4495005,文化里,2015/1/1
10401(實價),住宅大樓,嘉義市嘉義市彌陀路121~150號,18.8,1房/1廳/1衛,17 /共20層,18.72,1.48,--,#NAME?,9.1,170萬,600台灣嘉義市東區彌陀路121號,23.4666592,120.4667133,芳草里,2015/1/1
10401(實價),住宅大樓,嘉義市嘉義市保建街31~60號,21.6,3房/2廳/2衛,7 /共12層,36.81,6.2,--,#NAME?,9.2,338萬,600台灣嘉義市東區保建街60號,23.5006199,120.4530035,後湖里,2015/1/1
10401(實價),住宅大樓,嘉義市嘉義市德惠街31~60號,20.7,1房/1廳/1衛,9 /共12層,15.17,1.23,--,#NAME?,9.2,140萬,600台灣嘉義市西區德惠街32-34號,23.4837156,120.432457,竹圍里,2015/1/1
10401(實價),華廈(含車位),嘉義市嘉義市國城三街1~30號,21,3房/2廳/2衛,3 /共8層,38.11,6.27,--,#NAME?,9.2,352萬,600台灣嘉義市西區國城三街30號,23.4830397,120.4290873,福安里,2015/1/1
10401(實價),華廈,嘉義市嘉義市自強街195巷1~30號,24.2,4房/2廳/2衛,3 /共8層,41.26,6.23,--,#NAME?,9.4,388萬,600台灣嘉義市西區自強街195巷32-1號,23.4643382,120.4201285,劉厝里,2015/1/1
10401(實價),華廈(含車位),嘉義市嘉義市南京路20巷31~60號,19.8,3房/2廳/2衛,3 /共10層,41.44,6.56,--,#NAME?,9.4,390萬,600台灣嘉義市西區南京路20巷19-57號,23.4566788,120.4425104,獅子里,2015/1/1
10401(實價),住宅大樓(含車位),嘉義市嘉義市博愛路二段151~180號,15.8,2房/1廳/1衛,5 /共14層,41.39,2.8,11.95,#NAME?,9.5,393萬,600台灣嘉義市西區博愛路二段133號,23.4815231,120.4398559,,2015/1/1
10401(實價),住宅大樓(含車位),嘉義市嘉義市仁愛路240巷1~30號,10.3,0房/0廳/0衛,3 /共14層,56.14,10.33,--,#NAME?,9.5,532萬,600台灣嘉義市西區仁愛路1號,23.4666367,120.4406522,自強里,2015/1/1
10401(實價),住宅大樓,嘉義市嘉義市志昇街1~30號,10.2,3房/2廳/2衛,7 /共14層,55.55,11.43,--,#NAME?,9.5,530萬,600台灣嘉義市西區仁愛路159巷22號,23.4689729,120.4422175,自強里,2015/1/1
10401(實價),公寓(含車位),嘉義市嘉義市南興路199巷31~60號,19.4,3房/1廳/2衛,5 /共5層,46.37,11.23,--,#NAME?,9.5,439萬,600台灣嘉義市東區南興路63號,23.4665902,120.460881,芳安里,2015/1/1
10401(實價),住宅大樓(含車位),嘉義市嘉義市志昇街31~60號,10.2,3房/2廳/2衛,8 /共14層,55.55,11.43,--,#NAME?,9.5,530萬,600台灣嘉義市西區仁愛路159巷22號,23.4689729,120.4422175,自強里,2015/1/1
10401(實價),住宅大樓,嘉義市嘉義市友孝路271~300號,15.2,2房/1廳/1衛,3 /共12層,26.24,3.2,--,#NAME?,9.5,250萬,600台灣嘉義市西區友孝路300號,23.4879919,120.4353601,保安里,2015/1/1
10401(實價),透天厝,嘉義市嘉義市自強街106巷31~60號,22.9,6房/1廳/5衛,1 /共4層,53.98,22.99,--,#NAME?,9.7,525萬,600台灣嘉義市西區自強街106巷31號,23.4657378,120.4210809,劉厝里,2015/1/1
10401(實價),公寓,嘉義市嘉義市林森東路451~480號,25.4,3房/2廳/3衛,1 /共5層,57.46,23.99,--,#NAME?,9.8,565萬,600台灣嘉義市東區林森東路480號,23.491523,120.4698939,圳頭里,2015/1/1
10401(實價),住宅大樓,嘉義市嘉義市德明路61~90號,19.4,2房/2廳/1衛,17 /共18層,25.08,1.88,--,#NAME?,9.8,245萬,600台灣嘉義市西區德明路90號,23.4814836,120.4320387,福全里,2015/1/1
10401(實價),住宅大樓,嘉義市嘉義市興雅路61~90號,20.2,14房/2廳/14衛,11 /共12層,153.39,13.12,--,#NAME?,9.8,1500萬,600台灣嘉義市西區興雅路90號,23.4830055,120.4327422,竹圍里,2015/1/1
10401(實價),透天厝,嘉義市嘉義市忠孝北街141巷6弄1~30號,6.8,3房/2廳/2衛,1 /共3層,24,20.61,--,#NAME?,9.8,235萬,600台灣嘉義市東區忠孝北街112號,23.5166068,120.4467847,荖藤里,2015/1/1
10401(實價),華廈(含車位),嘉義市嘉義市友孝路151~180號,20.7,3房/2廳/2衛,4 /共9層,40.36,4.42,--,#NAME?,9.9,400萬,600台灣嘉義市西區友孝路180號,23.484917,120.4354928,竹圍里,2015/1/1
10401(實價),住宅大樓,嘉義市嘉義市小雅路181~210號,21.6,3房/1廳/2衛,13 /共16層,25.03,4.25,--,#NAME?,9.9,248萬,600台灣嘉義市東區小雅路185號,23.4726044,120.4740688,蘭潭里,2015/1/1
10401(實價),住宅大樓,嘉義市嘉義市八德路301~330號,20.2,3房/2廳/2衛,4 /共16層,32.17,3.47,--,#NAME?,9.9,320萬,600台灣嘉義市西區八德路330號,23.4912488,120.4302424,保安里,2015/1/1
10401(實價),華廈,嘉義市嘉義市文雅街116巷1~30號,18.6,4房/2廳/3衛,1 /共9層,57.48,9.37,--,#NAME?,9,520萬,600台灣嘉義市東區文雅街140巷11號,23.4840615,120.4853228,文雅里,2015/1/1
10401(實價),住宅大樓,嘉義市嘉義市彌陀路241~270號,22.7,2房/1廳/1衛,10 /共12層,20,3.1,--,#NAME?,9,180萬,600台灣嘉義市東區彌陀路237號,23.4684617,120.4657539,芳草里,2015/1/1
10401(實價),住宅大樓(含車位),嘉義市嘉義市新榮路1~30號,10.3,3房/2廳/2衛,11 /共14層,59.17,13.99,--,#NAME?,9,535萬,600台灣嘉義市西區新榮路1號,23.4689591,120.4451514,致遠里,2015/1/1
10401(實價),住宅大樓(含車位),嘉義市嘉義市國賢一街61~90號,22.6,4房/2廳/2衛,13 /共15層,53.6,4.99,--,#NAME?,9,480萬,600台灣嘉義市西區國賢一街70號,23.4845468,120.4287251,保福里,2015/1/1
10402(實價),店面(店鋪),嘉義市嘉義市文化路297巷1~30號,0,10房/8廳/13衛,1 /共5層,191.26,31.95,--,#NAME?,0,3674萬,600台灣嘉義市西區垂楊路402號,23.4741274,120.4497741,文化里,2015/2/1
10402(實價),華廈,嘉義市嘉義市新民路707巷1~30號,17.8,1房/1廳/1衛,5 /共7層,22.73,4.39,--,#NAME?,10.1,230萬,600台灣嘉義市西區新民路707巷2號,23.4690412,120.4395523,垂楊里,2015/2/1
10402(實價),套房,嘉義市嘉義市東洋新?271~300號,29.3,1房/1廳/1衛,2 /共5層,13.02,3.37,--,#NAME?,10.4,135萬,600台灣嘉義市東區文雅街,23.4837986,120.487306,文雅里,2015/2/1
10402(實價),住宅大樓(含車位),嘉義市嘉義市新生路301~330號,19,3房/1廳/2衛,10 /共13層,32.02,4.3,--,#NAME?,10.6,338萬,600台灣嘉義市東區新生路301號,23.4827383,120.4609195,中山里,2015/2/1
10402(實價),華廈,嘉義市嘉義市中興路271巷1弄1~30號,21.6,3房/2廳/2衛,1 /共7層,40.33,7.23,--,#NAME?,10.9,440萬,600台灣嘉義市西區中興路1號,23.480175,120.4394459,後驛里,2015/2/1
10402(實價),華廈,嘉義市嘉義市友愛路1~30號,21.7,2房/1廳/1衛,5 /共7層,27.16,4.59,--,#NAME?,10,272萬,600台灣嘉義市西區友愛路30號,23.4921539,120.4441036,湖邊里,2015/2/1
10402(實價),透天厝,嘉義市嘉義市義教街750巷1~30號,40.5,3房/2廳/2衛,1 /共2層,26.83,22.69,--,#NAME?,11.2,300萬,600台灣嘉義市東區義教街30號,23.4934882,120.4678217,新店里,2015/2/1
10402(實價),透天厝,嘉義市嘉義市保義路121~150號,33.2,0房/0廳/3衛,1 /共3層,32.04,17.75,--,#NAME?,11.2,360萬,600台灣嘉義市東區保義路146號,23.5028988,120.4531787,後湖里,2015/2/1
10402(實價),住宅大樓,嘉義市嘉義市彌陀路121~150號,18.9,3房/2廳/2衛,11 /共20層,39.96,2.96,--,#NAME?,11.3,450萬,600台灣嘉義市東區彌陀路121號,23.4666592,120.4667133,芳草里,2015/2/1
10402(實價),透天厝,嘉義市嘉義市自強街134巷31~60號,36.8,4房/2廳/2衛,1 /共2層,26.23,19.66,--,#NAME?,11.4,300萬,600台灣嘉義市西區自強街31號,23.464875,120.423895,劉厝里,2015/2/1
10402(實價),透天厝,嘉義市嘉義市保義路108巷31~60號,38.8,4房/2廳/2衛,1 /共2層,28.54,25.41,--,#NAME?,11.6,332萬,600台灣嘉義市東區保義路108巷25號,23.5017464,120.4536756,後湖里,2015/2/1
10402(實價),店面(店鋪),嘉義市嘉義市友忠路991~1020號,17,2房/1廳/1衛,1 /共12層,50.68,7.27,--,#NAME?,11,560萬,600台灣嘉義市西區友忠路991號,23.4910542,120.44262,新厝里,2015/2/1
10402(實價),華廈,嘉義市嘉義市西榮街151~180號,21.8,2房/2廳/2衛,1 /共6層,41.1,7.4,--,#NAME?,12.4,510萬,600台灣嘉義市西區西榮街180號,23.4781491,120.4453078,西榮里,2015/2/1
10402(實價),透天厝,嘉義市嘉義市保仁三街162巷1弄1~30號,41.3,3房/2廳/2衛,1 /共2層,19.24,19.36,--,#NAME?,12.7,245萬,600台灣嘉義市東區保仁三街1號,23.503521,120.4533602,後湖里,2015/2/1
10402(實價),店面(店鋪),嘉義市嘉義市文化路297巷1~30號,0,0房/0廳/1衛,1 /共1層,20.34,31.95,--,#NAME?,129.9,2642萬,600台灣嘉義市西區垂楊路402號,23.4741274,120.4497741,文化里,2015/2/1
10402(實價),透天厝,嘉義市嘉義市保仁三街1~30號,0.2,4房/3廳/4衛,1 /共3層,58.62,33.09,--,#NAME?,13.1,768萬,600台灣嘉義市東區保仁三街1號,23.503521,120.4533602,後湖里,2015/2/1
10402(實價),套房,嘉義市嘉義市廣州街211~240號,20.9,1房/1廳/1衛,4 /共7層,12.03,3.87,--,#NAME?,13.3,160萬,600台灣嘉義市西區廣州街211號,23.4640077,120.431415,福民里,2015/2/1
10402(實價),透天厝,嘉義市嘉義市德明路30巷31~60號,45.6,3房/2廳/1衛,1 /共2層,22.39,22.39,--,#NAME?,13.4,300萬,600台灣嘉義市西區德明路40號,23.4804358,120.4318721,福全里,2015/2/1
10402(實價),透天厝,嘉義市嘉義市廣州街18巷1~30號,25.3,10房/2廳/5衛,1 /共2層,54.65,39.33,--,#NAME?,13.4,735萬,600台灣嘉義市西區廣州街30號,23.4624529,120.4355921,福民里,2015/2/1
10402(實價),透天厝,嘉義市嘉義市興南里9鄰吳鳳南路25巷1~30號,46.3,3房/2廳/2衛,1 /共2層,25.56,20.27,--,#NAME?,13.7,350萬,600台灣嘉義市東區吳鳳南路25巷3號,23.4732011,120.4552785,興南里,2015/2/1
10402(實價),透天厝,嘉義市嘉義市仁愛路227巷1~30號,43.3,3房/1廳/2衛,1 /共2層,29.02,22.08,--,#NAME?,14.1,410萬,600台灣嘉義市西區仁愛路227巷1號,23.4710375,120.4424087,垂楊里,2015/2/1
10402(實價),透天厝,嘉義市嘉義市保仁三街1~30號,0.2,4房/3廳/4衛,1 /共3層,54.32,30.98,--,#NAME?,14.2,770萬,600台灣嘉義市東區保仁三街1號,23.503521,120.4533602,後湖里,2015/2/1
10402(實價),套房,嘉義市嘉義市林森西路1~30號,31.1,1房/1廳/1衛,11 /共12層,12.3,2.01,--,#NAME?,14.2,175萬,600台灣嘉義市東區林森西路1號,23.4857906,120.4529263,北門里,2015/2/1
10402(實價),透天厝,嘉義市嘉義市民生南路850巷1弄31~60號,0.3,4房/3廳/5衛,1 /共3層,77.45,44.17,--,#NAME?,14.2,1100萬,600台灣嘉義市西區民生南路850巷1弄30號,23.4545835,120.4393273,湖內里,2015/2/1
10402(實價),透天厝,嘉義市嘉義市保仁三街1~30號,0.2,4房/3廳/4衛,1 /共3層,52.3,31.58,--,#NAME?,14.5,760萬,600台灣嘉義市東區保仁三街1號,23.503521,120.4533602,後湖里,2015/2/1
10402(實價),透天厝,嘉義市嘉義市保愛二街61~90號,0.2,4房/3廳/5衛,1 /共4層,111.27,52.33,--,#NAME?,14.7,1638萬,600台灣嘉義市東區保愛二街90號,23.5027542,120.4539096,後湖里,2015/2/1
10402(實價),透天厝,嘉義市嘉義市大聖路181~210號,0.8,4房/2廳/3衛,1 /共4層,61.56,41.95,--,#NAME?,14.9,916萬,600台灣嘉義市西區大聖路156號,23.4617412,120.4184082,劉厝里,2015/2/1
10402(實價),透天厝,嘉義市嘉義市保義路151~180號,0.2,5房/2廳/5衛,1 /共4層,63.35,26.18,--,#NAME?,15.2,965萬,600台灣嘉義市東區保仁三街1號,23.503521,120.4533602,後湖里,2015/2/1
10402(實價),透天厝,嘉義市嘉義市東義路109巷1~30號,0.3,3房/3廳/4衛,1 /共3層,63.13,32.37,--,#NAME?,15.2,960萬,600台灣嘉義市東區東義路109巷1號,23.4950314,120.4688871,後庄里,2015/2/1
10402(實價),透天厝,嘉義市嘉義市林森東路163巷91~120號,40.3,2房/2廳/2衛,1 /共2層,31.66,29.95,--,#NAME?,15.3,485萬,600台灣嘉義市東區林森東路163巷91號,23.4887993,120.4609102,太平里,2015/2/1
10402(實價),透天厝,嘉義市嘉義市國聖一街1~30號,0.2,5房/3廳/5衛,1 /共4層,114.14,49.91,--,#NAME?,15.6,1780萬,600台灣嘉義市西區國聖一街29號,23.4856137,120.429261,保福里,2015/2/1
10402(實價),透天厝,嘉義市嘉義市軍輝路121~150號,21.2,9房/2廳/4衛,1 /共4層,76.33,29.65,--,#NAME?,15.7,1195萬,600台灣嘉義市東區軍輝路152-1號,23.4561599,120.4610738,興仁里,2015/2/1
10402(實價),透天厝,嘉義市嘉義市文心街91~120號,1.1,4房/2廳/5衛,1 /共4層,87.21,40.62,--,#NAME?,15.9,1390萬,600台灣嘉義市東區文心街109號,23.4815881,120.4859382,文雅里,2015/2/1
10402(實價),透天厝,嘉義市嘉義市保仁三街1~30號,0.2,5房/3廳/5衛,1 /共4層,76.09,30.69,--,#NAME?,16.1,1228萬,600台灣嘉義市東區保仁三街1號,23.503521,120.4533602,後湖里,2015/2/1
10402(實價),透天厝,嘉義市嘉義市國聖一街1~30號,0.2,5房/3廳/6衛,1 /共4層,117.42,49.91,--,#NAME?,16.6,1950萬,600台灣嘉義市西區國聖一街29號,23.4856137,120.429261,保福里,2015/2/1
10402(實價),透天厝,嘉義市嘉義市保義路151~180號,0.2,4房/3廳/4衛,1 /共3層,58.04,28.29,--,#NAME?,16.7,968萬,600台灣嘉義市東區保仁三街1號,23.503521,120.4533602,後湖里,2015/2/1
10402(實價),透天厝,嘉義市嘉義市保義路151~180號,0.2,4房/3廳/4衛,1 /共3層,55.23,25.58,--,#NAME?,17.2,950萬,600台灣嘉義市東區保仁三街1號,23.503521,120.4533602,後湖里,2015/2/1
10402(實價),透天厝,嘉義市嘉義市重慶二街91~120號,19.3,6房/2廳/3衛,1 /共3層,46.41,206,--,#NAME?,17.2,800萬,600台灣嘉義市西區重慶二街120號,23.459224,120.4323242,紅瓦里,2015/2/1
10402(實價),透天厝,嘉義市嘉義市湖邊里6鄰國華新村31~60號,44.4,3房/2廳/2衛,1 /共2層,21.42,30.25,--,#NAME?,17.3,370萬,600台灣嘉義市西區國華新村37號,23.4939621,120.4432989,湖邊里,2015/2/1
10402(實價),透天厝,嘉義市嘉義市軍輝路162巷31~60號,38.4,4房/2廳/2衛,1 /共2層,25.68,22.39,--,#NAME?,17.7,455萬,600台灣嘉義市東區軍輝路162巷31號,23.4568189,120.4607153,興仁里,2015/2/1
10402(實價),透天厝,嘉義市嘉義市松江三街63巷1~30號,37.9,4房/2廳/2衛,1 /共2層,23.79,20.87,--,#NAME?,17.7,420萬,600台灣嘉義市西區松江三街50號,23.4929123,120.4435351,湖邊里,2015/2/1
10402(實價),透天厝(含車位),嘉義市嘉義市大雅路一段368巷56弄1~30號,0.5,4房/2廳/3衛,1 /共3層,47.36,25.26,3.78,#NAME?,17.9,850萬,600台灣嘉義市東區大雅路一段1號,23.479947,120.503839,盧厝里,2015/2/1
10402(實價),透天厝,嘉義市嘉義市友孝路61~90號,25.5,3房/1廳/3衛,1 /共3層,47.01,26.02,--,#NAME?,17,800萬,600台灣嘉義市西區友孝路70號,23.4811874,120.4356667,竹圍里,2015/2/1
10402(實價),透天厝,嘉義市嘉義市東義路109巷1~30號,0.5,4房/3廳/5衛,1 /共3層,64.41,47.08,--,#NAME?,18.4,1187萬,600台灣嘉義市東區東義路109巷1號,23.4950314,120.4688871,後庄里,2015/2/1
10402(實價),透天厝,嘉義市嘉義市貴州街121~150號,29.9,4房/2廳/3衛,1 /共2層,40.32,28.44,--,#NAME?,18.5,745萬,600台灣嘉義市西區蘭州二街83-93號,23.467905,120.4324975,車店里,2015/2/1
10402(實價),透天厝,嘉義市嘉義市仁愛路261巷31~60號,52.1,2房/1廳/1衛,1 /共1層,14.45,25.41,--,#NAME?,18.7,270萬,600台灣嘉義市西區仁愛路261巷13號,23.4716217,120.4417404,垂楊里,2015/2/1
10402(實價),店面(店鋪),嘉義市嘉義市友愛路481~510號,9.3,3房/2廳/3衛,1 /共4層,55.88,25.11,--,#NAME?,18.8,1050萬,600台灣嘉義市西區友愛路510號,23.4886401,120.4349389,保安里,2015/2/1
10402(實價),透天厝,嘉義市嘉義市後驛街91~120號,1.3,4房/1廳/4衛,1 /共4層,84.71,37.81,--,#NAME?,18.9,1600萬,600台灣嘉義市西區後驛街93號,23.4809755,120.4402244,後驛里,2015/2/1
10402(實價),透天厝,嘉義市嘉義市五福街82巷1~30號,28.8,3房/2廳/2衛,1 /共2層,30.68,30.25,--,#NAME?,18.9,580萬,600台灣嘉義市東區五福街165巷1號,23.4878273,120.4683435,王田里,2015/2/1
10402(實價),透天厝,嘉義市嘉義市忠孝北街33巷8弄1~30號,2.3,5房/1廳/4衛,1 /共3層,52.7,28.74,--,#NAME?,1,55萬,600台灣嘉義市東區忠孝北街112號,23.5166068,120.4467847,荖藤里,2015/2/1
10402(實價),透天厝,嘉義市嘉義市彌陀路238巷1~30號,38,3房/2廳/2衛,1 /共2層,34.96,26.62,--,#NAME?,20.9,730萬,600台灣嘉義市東區彌陀路238巷4號,23.4735829,120.4634449,短竹里,2015/2/1
10402(實價),透天厝,嘉義市嘉義市日新街181~210號,3.4,4房/2廳/3衛,1 /共4層,100.55,43.86,--,#NAME?,24.7,2480萬,600台灣嘉義市東區日新街210號,23.4703177,120.4691987,短竹里,2015/2/1
10402(實價),透天厝,嘉義市嘉義市林森東路163巷121~150號,41.7,4房/2廳/2衛,1 /共2層,35.39,62.32,--,#NAME?,26.3,930萬,600台灣嘉義市東區林森東路163巷95號,23.4891894,120.4605407,太平里,2015/2/1
10402(實價),透天厝,嘉義市嘉義市北榮街151~180號,56.7,2房/2廳/1衛,1 /共2層,19.27,13.01,--,#NAME?,26.5,510萬,600台灣嘉義市西區北榮街180號,23.4805071,120.4442918,番社里,2015/2/1
10402(實價),透天厝,嘉義市嘉義市光彩街571~600號,0.7,10房/2廳/12衛,1 /共5層,106.76,29.58,--,#NAME?,27.2,2900萬,600台灣嘉義市西區仁愛路540號,23.477618,120.442033,書院里,2015/2/1
10402(實價),透天厝,嘉義市嘉義市光彩街541~570號,0.7,10房/2廳/12衛,1 /共5層,103.53,27.77,--,#NAME?,27.8,2880萬,600台灣嘉義市西區光彩街541號,23.477635,120.4437435,書院里,2015/2/1
10402(實價),華廈,嘉義市嘉義市友愛路271~300號,22.8,0房/0廳/0衛,6 /共10層,29.87,0,--,#NAME?,2,60萬,600台灣嘉義市西區友愛路271號,23.485522,120.433194,竹圍里,2015/2/1
10402(實價),透天厝,嘉義市嘉義市軍輝路133巷1~30號,25.8,4房/2廳/3衛,1 /共2層,38.59,26.92,--,#NAME?,3.2,124萬,600台灣嘉義市東區軍輝路91巷1號,23.4560228,120.4618719,興仁里,2015/2/1
10402(實價),公寓,嘉義市嘉義市興溪街153巷30弄31~60號,32.3,2房/2廳/1衛,4 /共5層,16.2,5.03,--,#NAME?,3.5,56萬,600台灣嘉義市東區溪興街153巷30弄16號,23.453869,120.4560725,興村里,2015/2/1
10402(實價),店面(店鋪),嘉義市嘉義市文化路297巷1~30號,0,5房/4廳/7衛,1 /共5層,111.57,36.79,--,#NAME?,30.6,3414萬,600台灣嘉義市西區垂楊路402號,23.4741274,120.4497741,文化里,2015/2/1
10402(實價),透天厝,嘉義市嘉義市徐州六街1~30號,29.5,4房/2廳/4衛,1 /共3層,58.27,53.85,--,#NAME?,36.2,2110萬,600台灣嘉義市西區徐州六街40-42號,23.4668647,120.4380083,福民里,2015/2/1
10402(實價),公寓(含車位),嘉義市嘉義市林森東路451~480號,25.5,3房/1廳/2衛,1 /共5層,57.46,23.99,--,#NAME?,4.4,250萬,600台灣嘉義市東區林森東路480號,23.491523,120.4698939,圳頭里,2015/2/1
10402(實價),公寓,嘉義市嘉義市南京路126巷31~60號,29.4,3房/1廳/1衛,5 /共5層,24.9,6.03,--,#NAME?,4.8,120萬,600台灣嘉義市西區南京路31號,23.4560745,120.4422366,獅子里,2015/2/1
10402(實價),華廈,嘉義市嘉義市竹子腳1~30號,22.5,3房/2廳/2衛,3 /共10層,44.57,7.7,--,#NAME?,5.1,226萬,600台灣嘉義市西區竹子腳巷21號,23.4943783,120.3974321,竹村里,2015/2/1
10402(實價),住宅大樓(含車位),嘉義市嘉義市志昇街91~120號,10.3,3房/2廳/2衛,12 /共14層,56.84,8.79,--,#NAME?,5.3,300萬,600台灣嘉義市西區志昇街79號,23.4691128,120.4430855,翠岱里,2015/2/1
10402(實價),公寓,嘉義市嘉義市北港路31~60號,22.6,2房/1廳/1衛,5 /共5層,20.3,5.91,--,#NAME?,5.4,110萬,600台灣嘉義市西區北港路196-198號,23.4770479,120.4353905,福全里,2015/2/1
10402(實價),透天厝,嘉義市嘉義市友忠路827巷45弄31~60號,16.2,3房/2廳/2衛,1 /共3層,20.17,14.52,--,#NAME?,5.4,108萬,600台灣嘉義市西區友忠路827巷2弄32號,23.4874818,120.4416624,重興里,2015/2/1
10402(實價),套房,嘉義市嘉義市重慶路361~390號,21.3,1房/0廳/1衛,4 /共7層,11.08,1.79,--,#NAME?,5.4,60萬,600台灣嘉義市西區重慶路373號,23.4628796,120.4315962,福民里,2015/2/1
10402(實價),套房,嘉義市嘉義市溫州二街91~120號,23.3,1房/1廳/1衛,5 /共6層,10,1.92,--,#NAME?,5.6,56萬,600台灣嘉義市西區溫州二街106號,23.4643282,120.4368017,福民里,2015/2/1
10402(實價),華廈,嘉義市嘉義市南興路241~270號,33.9,3房/2廳/1衛,3 /共6層,31.34,8.76,--,#NAME?,5.7,180萬,600台灣嘉義市東區南興路241號,23.4662573,120.4563033,頂寮里,2015/2/1
10402(實價),華廈,嘉義市嘉義市林森東路211~240號,25.1,3房/2廳/2衛,5 /共7層,46.22,10.03,--,#NAME?,5.8,268萬,600台灣嘉義市東區林森東路282-286號,23.4882305,120.4621695,太平里,2015/2/1
10402(實價),透天厝,嘉義市嘉義市彌陀路345巷1~30號,43.3,1房/1廳/1衛,1 /共2層,19.55,17.24,--,#NAME?,6.1,120萬,600台灣嘉義市東區彌陀路225巷30號,23.4677693,120.4658714,芳草里,2015/2/1
10402(實價),住宅大樓,嘉義市嘉義市世賢路一段511~540號,15.6,3房/2廳/2衛,4 /共14層,32.69,3.31,--,#NAME?,6.2,203萬,600台灣嘉義市西區世賢路一段511號,23.4937076,120.4327305,保生里,2015/2/1
10402(實價),套房,嘉義市嘉義市忠順一街1~30號,21.9,1房/1廳/1衛,4 /共8層,9.7,1.25,--,#NAME?,6.2,60萬,600台灣嘉義市西區忠順一街30號,23.4842808,120.4345523,竹圍里,2015/2/1
10402(實價),套房,嘉義市嘉義市忠順一街1~30號,21.9,1房/1廳/1衛,5 /共8層,11.22,1.57,--,#NAME?,6.2,70萬,600台灣嘉義市西區忠順一街30號,23.4842808,120.4345523,竹圍里,2015/2/1
10402(實價),套房,嘉義市嘉義市友愛路541~570號,19.6,1房/1廳/1衛,7 /共14層,11.35,0.82,--,#NAME?,6.2,70萬,600台灣嘉義市西區友愛路570號,23.4900956,120.4362421,保生里,2015/2/1
10402(實價),透天厝,嘉義市嘉義市自強街84巷31~60號,37,3房/2廳/2衛,1 /共2層,30.96,22.99,--,#NAME?,6.3,196萬,600台灣嘉義市西區自強街84巷42-44號,23.4657842,120.4216584,劉厝里,2015/2/1
10402(實價),華廈,嘉義市嘉義市南興路241~270號,33.9,3房/2廳/2衛,4 /共6層,31.78,8.5,--,#NAME?,6.4,203萬,600台灣嘉義市東區南興路241號,23.4662573,120.4563033,頂寮里,2015/2/1
10402(實價),華廈,嘉義市嘉義市新建街31~60號,20.8,2房/1廳/1衛,2 /共7層,13.23,2.42,--,#NAME?,6.4,85萬,600台灣嘉義市西區新建街16號,23.468731,120.4387561,垂楊里,2015/2/1
10402(實價),套房,嘉義市嘉義市忠順一街1~30號,21.9,1房/1廳/1衛,8 /共8層,9.17,1.23,--,#NAME?,6.5,60萬,600台灣嘉義市西區忠順一街30號,23.4842808,120.4345523,竹圍里,2015/2/1
10402(實價),套房,嘉義市嘉義市蘭井街151~180號,24.1,1房/1廳/1衛,4 /共6層,10.68,1.78,--,#NAME?,6.6,70萬,600台灣嘉義市東區蘭井街155號,23.4775913,120.4516521,中央里,2015/2/1
10402(實價),住宅大樓,嘉義市嘉義市彌陀路121~150號,18.9,2房/1廳/2衛,18 /共20層,29.01,2.3,--,#NAME?,6.7,193萬,600台灣嘉義市東區彌陀路121號,23.4666592,120.4667133,芳草里,2015/2/1
10402(實價),公寓,嘉義市嘉義市盧厝里東洋新?481~510號,31.6,3房/1廳/2衛,4 /共5層,34.17,11.46,--,#NAME?,6.7,228萬,找不到位址,無,無,無,2015/2/1
10402(實價),透天厝,嘉義市嘉義市彌陀路345巷1~30號,43.3,1房/1廳/1衛,1 /共2層,20.24,16.64,--,#NAME?,6.8,138萬,600台灣嘉義市東區彌陀路225巷30號,23.4677693,120.4658714,芳草里,2015/2/1
10402(實價),住宅大樓(含車位),嘉義市嘉義市博東路151~180號,16.9,3房/2廳/2衛,17 /共22層,46.96,4.62,--,#NAME?,6.8,320萬,600台灣嘉義市東區博東路80-112號,23.4908563,120.4605339,太平里,2015/2/1
10402(實價),套房,嘉義市嘉義市蘭州一街151~180號,21.5,1房/1廳/1衛,7 /共7層,13.09,2.11,--,#NAME?,6.9,90萬,600台灣嘉義市西區蘭州一街151號,23.4672137,120.4324755,車店里,2015/2/1
10402(實價),透天厝,嘉義市嘉義市自強街211~240號,19.2,5房/3廳/5衛,1 /共5層,65.29,23.52,--,#NAME?,6.9,450萬,600台灣嘉義市西區自強街203號,23.4648145,120.4198955,劉厝里,2015/2/1
10402(實價),透天厝,嘉義市嘉義市蘭井街391~420號,50.8,1房/1廳/1衛,1 /共1層,5.16,5.75,--,#NAME?,67.9,350萬,600台灣嘉義市西區蘭井街318-328號,23.476958,120.4441246,書院里,2015/2/1
10402(實價),華廈,嘉義市嘉義市民國路151~180號,35.8,3房/2廳/2衛,7 /共7層,41.76,9.89,--,#NAME?,7.1,295萬,600台灣嘉義市東區民國路146號,23.4796154,120.4603115,華南里,2015/2/1
10402(實價),住宅大樓,嘉義市嘉義市圓福街118巷2弄121~150號,21.8,2房/2廳/1衛,6 /共15層,38.29,6.4,--,#NAME?,7.1,270萬,600台灣嘉義市東區圓福街118巷2弄108號,23.488141,120.467014,王田里,2015/2/1
10402(實價),住宅大樓(含車位),嘉義市嘉義市蘭井街331~360號,19.3,3房/2廳/2衛,4 /共16層,48.05,5.87,--,#NAME?,7.3,350萬,600台灣嘉義市西區蘭井街260號,23.4771987,120.4459214,西榮里,2015/2/1
10402(實價),華廈(含車位),嘉義市嘉義市友愛路149巷1~30號,22,3房/2廳/2衛,5 /共7層,46.32,7.64,--,#NAME?,7.3,336萬,600台灣嘉義市西區友愛路30號,23.4921539,120.4441036,湖邊里,2015/2/1
10402(實價),套房,嘉義市嘉義市大雅路二段433巷28弄31~60號,20.1,1房/1廳/1衛,7 /共12層,11.15,1.11,--,#NAME?,7.4,83萬,600台灣嘉義市東區大雅路二段433巷36-1號,23.4763949,120.4727447,長竹里,2015/2/1
10402(實價),住宅大樓,嘉義市嘉義市興達路481~510號,20.3,3房/2廳/2衛,11 /共16層,33.31,3.33,--,#NAME?,7.4,246萬,600台灣嘉義市西區興達路480號,23.484986,120.431949,竹圍里,2015/2/1
10402(實價),套房,嘉義市嘉義市友愛路481~510號,15.3,1房/1廳/1衛,9 /共12層,20.99,2.5,--,#NAME?,7.5,158萬,600台灣嘉義市西區友愛路510號,23.4886401,120.4349389,保安里,2015/2/1
10402(實價),住宅大樓,嘉義市嘉義市南京路15巷1~30號,20.4,3房/2廳/2衛,7 /共12層,30.14,4.46,--,#NAME?,7.6,230萬,600台灣嘉義市西區南京路30號,23.4562023,120.4426332,獅子里,2015/2/1
10402(實價),住宅大樓,嘉義市嘉義市彌陀路151~180號,18.9,3房/1廳/1衛,14 /共20層,38.31,3.12,--,#NAME?,7.7,295萬,600台灣嘉義市東區彌陀路180號,23.4724381,120.4638868,短竹里,2015/2/1
10402(實價),住宅大樓,嘉義市嘉義市彌陀路121~150號,18.9,2房/2廳/2衛,16 /共20層,28.54,2.14,--,#NAME?,7.7,220萬,600台灣嘉義市東區彌陀路121號,23.4666592,120.4667133,芳草里,2015/2/1
10402(實價),住宅大樓(含車位),嘉義市嘉義市世賢路一段631~660號,20.6,3房/2廳/2衛,9 /共12層,40.27,3.89,--,#NAME?,7.9,320萬,600台灣嘉義市西區世賢路一段630號,23.4931556,120.4301178,保安里,2015/2/1
10402(實價),套房,嘉義市嘉義市中正路391~420號,18.9,1房/0廳/1衛,11 /共11層,9.83,0.41,--,#NAME?,8.1,80萬,600台灣嘉義市西區中正路383-399號,23.4788021,120.4495005,文化里,2015/2/1
10402(實價),華廈,嘉義市嘉義市彌陀路238巷59弄1~30號,25,3房/2廳/2衛,4 /共7層,34.43,7.24,--,#NAME?,8.1,280萬,600台灣嘉義市東區彌陀路238巷7弄5號,23.4740199,120.4632164,短竹里,2015/2/1
10402(實價),華廈,嘉義市嘉義市松江三街91~120號,20.9,3房/2廳/2衛,6 /共9層,22.85,2.71,--,#NAME?,8.1,185萬,600台灣嘉義市西區松江三街120號,23.4928684,120.4415975,新厝里,2015/2/1
10402(實價),住宅大樓,嘉義市嘉義市友愛路481~510號,15.3,3房/1廳/2衛,3 /共12層,32.84,3.75,--,#NAME?,8.2,270萬,600台灣嘉義市西區友愛路510號,23.4886401,120.4349389,保安里,2015/2/1
10402(實價),華廈,嘉義市嘉義市林森東路211巷1~30號,25.1,3房/1廳/2衛,5 /共7層,54.25,8.82,--,#NAME?,8.3,450萬,600台灣嘉義市東區林森東路269巷1弄30號,23.4901012,120.4654374,新店里,2015/2/1
10402(實價),華廈,嘉義市嘉義市民生南路510巷1~30號,23.8,2房/1廳/1衛,7 /共9層,21.78,4.43,--,#NAME?,8.3,180萬,600台灣嘉義市西區民生南路850巷1弄30號,23.4545835,120.4393273,湖內里,2015/2/1
10402(實價),透天厝,嘉義市嘉義市重慶二街235巷1~30號,38.3,0房/0廳/0衛,1 /共1層,14.43,27.83,--,#NAME?,8.3,120萬,600台灣嘉義市西區重慶二街242巷2號,23.4589114,120.4298393,紅瓦里,2015/2/1
10402(實價),透天厝,嘉義市嘉義市民國路257巷1~30號,42.9,2房/1廳/1衛,1 /共2層,18.13,13.31,--,#NAME?,8.3,150萬,600台灣嘉義市東區民國路30號,23.4760933,120.4608604,朝陽里,2015/2/1
10402(實價),住宅大樓,嘉義市嘉義市新民路391~420號,20.6,2房/2廳/1衛,6 /共12層,28.97,4.11,--,#NAME?,8.4,242萬,600台灣嘉義市西區新民路420號,23.4602379,120.4407319,光路里,2015/2/1
10402(實價),透天厝,嘉義市嘉義市民國路257巷1~30號,42.9,2房/1廳/1衛,1 /共2層,17.76,11.8,--,#NAME?,8.4,150萬,600台灣嘉義市東區民國路30號,23.4760933,120.4608604,朝陽里,2015/2/1
10402(實價),住宅大樓,嘉義市嘉義市小雅路181~210號,21.7,3房/2廳/1衛,12 /共16層,33.7,4.03,--,#NAME?,8.5,285萬,600台灣嘉義市東區小雅路185號,23.4726044,120.4740688,蘭潭里,2015/2/1
10402(實價),套房,嘉義市嘉義市小雅路181~210號,21.7,1房/1廳/1衛,4 /共16層,14.01,1.66,--,#NAME?,8.6,120萬,600台灣嘉義市東區小雅路185號,23.4726044,120.4740688,蘭潭里,2015/2/1
10402(實價),套房,嘉義市嘉義市興雅路91~120號,21.5,1房/1廳/1衛,9 /共9層,16.06,1.65,--,#NAME?,8.7,140萬,600台灣嘉義市西區興雅路91號,23.4828596,120.4330361,竹圍里,2015/2/1
10402(實價),透天厝,嘉義市嘉義市義教街613巷11弄1~30號,27.2,5房/1廳/2衛,1 /共2層,45.8,30.86,--,#NAME?,8.7,400萬,600台灣嘉義市東區義教街613巷11弄30號,23.4976035,120.4578316,頂庄里,2015/2/1
10402(實價),住宅大樓,嘉義市嘉義市八德路301~330號,20.3,3房/2廳/1衛,12 /共16層,39.84,4.23,--,#NAME?,8.7,346萬,600台灣嘉義市西區八德路330號,23.4912488,120.4302424,保安里,2015/2/1
10402(實價),住宅大樓(含車位),嘉義市嘉義市林森東路721~750號,11.9,3房/2廳/2衛,7 /共13層,52.97,13.11,--,#NAME?,8.9,470萬,600台灣嘉義市東區林森東路750號,23.4923366,120.4778693,圳頭里,2015/2/1
10402(實價),住宅大樓,嘉義市嘉義市博愛路二段151~180號,15.8,2房/1廳/1衛,10 /共14層,20.22,2.06,--,#NAME?,9.1,185萬,600台灣嘉義市西區博愛路二段133號,23.4815231,120.4398559,,2015/2/1
10402(實價),套房,嘉義市嘉義市仁愛路1~30號,23.5,1房/1廳/1衛,6 /共7層,13.99,2.59,--,#NAME?,9.3,130萬,600台灣嘉義市西區仁愛路1號,23.4666367,120.4406522,自強里,2015/2/1
10402(實價),華廈,嘉義市嘉義市後驛街1~30號,22.1,3房/2廳/2衛,1 /共6層,39.39,8,--,#NAME?,9.4,370萬,600台灣嘉義市西區後驛街30號,23.4828427,120.4415476,後驛里,2015/2/1
10402(實價),華廈,嘉義市嘉義市永春三街1~30號,22.5,3房/2廳/2衛,8 /共10層,42.3,6.22,--,#NAME?,9.5,400萬,600台灣嘉義市西區永春三街32號,23.4783622,120.4259589,西平里,2015/2/1
10402(實價),華廈,嘉義市嘉義市永福三街1~30號,22.4,3房/2廳/2衛,4 /共7層,45.09,7.77,--,#NAME?,9.5,430萬,600台灣嘉義市西區永福三街30號,23.4736996,120.4249398,磚?里,2015/2/1
10402(實價),住宅大樓(含車位),嘉義市嘉義市志昇街91~120號,10.3,3房/2廳/2衛,10 /共14層,56.58,8.95,--,#NAME?,9.6,545萬,600台灣嘉義市西區志昇街79號,23.4691128,120.4430855,翠岱里,2015/2/1
10402(實價),華廈,嘉義市嘉義市文雅街116巷31~60號,18.7,3房/2廳/2衛,6 /共9層,39.55,6.41,--,#NAME?,9.6,380萬,600台灣嘉義市東區文雅街140巷11號,23.4840615,120.4853228,文雅里,2015/2/1
10402(實價),住宅大樓(含車位),嘉義市嘉義市興業西路181~210號,10.3,3房/2廳/2衛,3 /共14層,53.75,9.75,--,#NAME?,9.9,530萬,600台灣嘉義市西區興業西路136-140號,23.4681898,120.4421177,自強里,2015/2/1
10402(實價),華廈,嘉義市嘉義市延平街271~300號,36.9,2房/2廳/1衛,6 /共7層,22.28,4.08,--,#NAME?,9.9,220萬,600台灣嘉義市西區延平街273號,23.4767004,120.4493225,文化里,2015/2/1
10402(實價),華廈,嘉義市嘉義市東洋新?301~330號,29.3,3房/2廳/2衛,1 /共5層,42.54,9.76,--,#NAME?,9.9,420萬,600台灣嘉義市東區文雅街,23.4837986,120.487306,文雅里,2015/2/1
10403(實價),透天厝,嘉義市嘉義市永康三街1~30號,21.8,4房/3廳/3衛,1 /共4層,82.69,32.67,--,#NAME?,10.1,838萬,600台灣嘉義市西區永康三街1號,23.4755222,120.425434,磚?里,2015/3/1
10403(實價),住宅大樓(含車位),嘉義市嘉義市大雅路二段421~450號,19.3,4房/2廳/2衛,12 /共16層,56.69,4.98,--,#NAME?,10.2,578萬,600台灣嘉義市東區大雅路二段421號,23.4773156,120.4734091,長竹里,2015/3/1
10403(實價),套房,嘉義市嘉義市蘭井街301~330號,19.8,1房/1廳/1衛,6 /共12層,11.7,1.03,--,#NAME?,10.2,119萬,600台灣嘉義市西區蘭井街330號,23.4769852,120.4435899,書院里,2015/3/1
10403(實價),透天厝,嘉義市嘉義市松江三街91~120號,30.7,4房/2廳/3衛,1 /共3層,42.07,18.76,--,#NAME?,10.3,435萬,600台灣嘉義市西區松江三街120號,23.4928684,120.4415975,新厝里,2015/3/1
10403(實價),華廈,嘉義市嘉義市嘉北街66巷1~30號,24.4,2房/2廳/2衛,2 /共7層,28.89,6.05,--,#NAME?,10.4,300萬,600台灣嘉義市東區嘉北街66巷5號,23.493988,120.454477,頂庄里,2015/3/1
10403(實價),透天厝,嘉義市嘉義市南京東街31~60號,33.3,4房/2廳/3衛,1 /共3層,48.22,21.48,--,#NAME?,10.4,500萬,600台灣嘉義市西區南京東街86號,23.4557607,120.4450942,光路里,2015/3/1
10403(實價),住宅大樓,嘉義市嘉義市文雅街150巷1~30號,19.4,3房/2廳/2衛,7 /共12層,50.16,7.26,--,#NAME?,10.4,520萬,600台灣嘉義市東區文雅街140巷11號,23.4840615,120.4853228,文雅里,2015/3/1
10403(實價),透天厝,嘉義市嘉義市西門街1~30號,43.5,3房/2廳/2衛,1 /共2層,23.27,18.15,--,#NAME?,10.7,250萬,600台灣嘉義市西區西門街1號,23.4716206,120.4436708,培元里,2015/3/1
10403(實價),華廈,嘉義市嘉義市嘉北街12巷1~30號,24.4,3房/2廳/2衛,3 /共7層,38.63,6.4,--,#NAME?,10.7,415萬,600台灣嘉義市東區嘉北街30號,23.4938508,120.4556015,仁義里,2015/3/1
10403(實價),辦公商業大樓,嘉義市嘉義市仁愛路331~360號,19.2,0房/0廳/0衛,4 /共14層,28.59,2.86,--,#NAME?,10.8,310萬,600台灣嘉義市西區仁愛路398-410號,23.4736556,120.4424013,新富里,2015/3/1
10403(實價),透天厝,嘉義市嘉義市芳安路335巷1~30號,35.2,6房/3廳/3衛,1 /共4層,36.66,19.06,--,#NAME?,10.8,395萬,600台灣嘉義市東區芳安路1號,23.4688333,120.4654,芳草里,2015/3/1
10403(實價),華廈,嘉義市嘉義市文雅街116巷1~30號,18.8,3房/2廳/2衛,6 /共9層,39.42,6.41,--,#NAME?,10.8,426萬,600台灣嘉義市東區文雅街140巷11號,23.4840615,120.4853228,文雅里,2015/3/1
10403(實價),套房,嘉義市嘉義市廣州街91~120號,24.3,1房/0廳/1衛,5 /共7層,11.02,2.14,--,#NAME?,10.9,120萬,600台灣嘉義市西區廣州街120號,23.4627158,120.4331098,福民里,2015/3/1
10403(實價),華廈,嘉義市嘉義市杭州四街61~90號,26.2,3房/1廳/2衛,7 /共7層,30.27,7.66,--,#NAME?,10.9,330萬,600台灣嘉義市西區杭州四街42號,23.4672318,120.4450469,美源里,2015/3/1
10403(實價),華廈,嘉義市嘉義市中山路1~30號,34.8,3房/2廳/2衛,6 /共7層,36.08,8.2,--,#NAME?,10,360萬,600台灣嘉義市東區中山路46號,23.4825597,120.4608711,中山里,2015/3/1
10403(實價),透天厝,嘉義市嘉義市義教街127巷1~30號,36.5,3房/2廳/2衛,1 /共2層,32.34,31.46,--,#NAME?,11.1,360萬,600台灣嘉義市東區義教街30號,23.4934882,120.4678217,新店里,2015/3/1
10403(實價),住宅大樓,嘉義市嘉義市後湖里保建街31~60號,21.8,2房/1廳/1衛,5 /共12層,25.88,4.55,--,#NAME?,11.1,286萬,600台灣嘉義市東區保建街60號,23.5006199,120.4530035,後湖里,2015/3/1
10403(實價),透天厝,嘉義市嘉義市北社尾路258巷61~90號,16.3,4房/1廳/3衛,1 /共3層,46.8,28.74,--,#NAME?,11.1,520萬,600台灣嘉義市西區北社尾路258巷10號,23.4938597,120.4226869,北湖里,2015/3/1
10403(實價),透天厝,嘉義市嘉義市林森東路269巷1弄1~30號,34,4房/2廳/2衛,1 /共2層,37.51,28.13,--,#NAME?,11.2,420萬,600台灣嘉義市東區林森東路269巷1弄1號,23.4905219,120.4657297,新店里,2015/3/1
10403(實價),透天厝,嘉義市嘉義市松江二街1~30號,37.9,4房/2廳/2衛,1 /共2層,26.53,19.97,--,#NAME?,11.5,305萬,600台灣嘉義市西區松江二街26-33號,23.4931486,120.4416856,新厝里,2015/3/1
10403(實價),透天厝,嘉義市嘉義市姜安街86巷1~30號,0.3,4房/3廳/5衛,1 /共4層,72.99,21.99,--,#NAME?,11.7,856萬,600台灣嘉義市西區興達路861號,23.4816379,120.4234869,福安里,2015/3/1
10403(實價),住宅大樓(含車位),嘉義市嘉義市西區新榮路211~240號,17.3,2房/2廳/1衛,11 /共12層,28.07,2.87,--,#NAME?,11.9,335萬,600台灣嘉義市西區新榮路207號,23.4761405,120.444407,西榮里,2015/3/1
10403(實價),透天厝,嘉義市嘉義市德安路91~120號,23.5,7房/3廳/6衛,1 /共5層,88.47,31.16,--,#NAME?,12.1,1070萬,600台灣嘉義市西區德安路120號,23.4841663,120.4293902,保福里,2015/3/1
10403(實價),透天厝,嘉義市嘉義市五福街185巷1~30號,37.3,3房/2廳/2衛,1 /共2層,26.65,20.57,--,#NAME?,12.3,329萬,600台灣嘉義市東區五福街185巷30號,23.4886689,120.469422,王田里,2015/3/1
10403(實價),透天厝,嘉義市嘉義市興業新村61~90號,43.2,0房/0廳/0衛,1 /共2層,20.08,16.03,--,#NAME?,12.5,250萬,600台灣嘉義市西區興業西路250號,23.4681445,120.4404587,自強里,2015/3/1
10403(實價),透天厝,嘉義市嘉義市保安二路177巷1~30號,28.8,3房/2廳/2衛,1 /共2層,44.85,37.81,--,#NAME?,12.5,560萬,600台灣嘉義市西區保安二路6號,23.4891269,120.4390206,新厝里,2015/3/1
10403(實價),透天厝,嘉義市嘉義市老吸街31巷1~30號,45,3房/1廳/1衛,1 /共1層,17.52,22.08,--,#NAME?,12.6,220萬,600台灣嘉義市西區老吸街31巷1號,23.4715767,120.4368048,新西里,2015/3/1
10403(實價),透天厝,嘉義市嘉義市國賢一街1~30號,21.8,5房/2廳/2衛,1 /共4層,76.61,30.86,--,#NAME?,13.1,1000萬,600台灣嘉義市西區國賢一街1號,23.4844536,120.4301086,保福里,2015/3/1
10403(實價),透天厝,嘉義市嘉義市安東二街1~30號,27.9,4房/1廳/1衛,1 /共2層,36.16,29.85,--,#NAME?,13.2,476萬,600台灣嘉義市西區安東二街5號,23.4930444,120.4331934,保生里,2015/3/1
10403(實價),透天厝,嘉義市嘉義市東義路109巷1~30號,0.4,3房/3廳/4衛,1 /共3層,61.17,29.34,--,#NAME?,13.4,820萬,600台灣嘉義市東區東義路109巷1號,23.4950314,120.4688871,後庄里,2015/3/1
10403(實價),透天厝,嘉義市嘉義市圓福街80巷31~60號,39.3,4房/2廳/2衛,1 /共2層,29.82,24.81,--,#NAME?,13.4,400萬,600台灣嘉義市東區圓福街80巷78號,23.4866119,120.4647835,王田里,2015/3/1
10403(實價),透天厝,嘉義市嘉義市大聖南街91~120號,8.8,6房/2廳/4衛,1 /共3層,58.48,30.78,--,#NAME?,13.5,790萬,600台灣嘉義市西區大聖南街120號,23.4609223,120.4186174,劉厝里,2015/3/1
10403(實價),透天厝,嘉義市嘉義市長榮街151~180號,39.3,4房/2廳/3衛,1 /共2層,40.85,24.5,--,#NAME?,13.5,550萬,600台灣嘉義市東區長榮街151號,23.483952,120.4532269,北門里,2015/3/1
10403(實價),透天厝,嘉義市嘉義市新建街95巷31~60號,38.1,4房/2廳/3衛,1 /共3層,41.6,35.7,--,#NAME?,13.5,560萬,600台灣嘉義市西區新建街95巷85號,23.4701281,120.4375134,車店里,2015/3/1
10403(實價),透天厝,嘉義市嘉義市東義路109巷1~30號,0.6,5房/3廳/5衛,1 /共4層,97.01,52.68,--,#NAME?,13.6,1323萬,600台灣嘉義市東區東義路109巷1號,23.4950314,120.4688871,後庄里,2015/3/1
10403(實價),透天厝,嘉義市嘉義市新民路416巷23弄1~30號,23.8,4房/2廳/3衛,1 /共3層,62.58,34.18,--,#NAME?,13.6,850萬,600台灣嘉義市西區新民路416巷23弄1號,23.4596854,120.4410674,光路里,2015/3/1
10403(實價),透天厝,嘉義市嘉義市民生南路485巷1~30號,42.9,3房/2廳/3衛,1 /共2層,26.38,17.24,--,#NAME?,13.8,365萬,600台灣嘉義市西區民生南路850巷1弄30號,23.4545835,120.4393273,湖內里,2015/3/1
10403(實價),透天厝,嘉義市嘉義市保安一路413巷31~60號,0.6,4房/2廳/3衛,1 /共4層,67.68,33.88,--,#NAME?,13.8,936萬,600台灣嘉義市西區保安一路60號,23.4937234,120.4406487,新厝里,2015/3/1
10403(實價),透天厝,嘉義市嘉義市大富東街1~30號,2.6,5房/2廳/4衛,1 /共4層,61.17,30.05,--,#NAME?,13.9,850萬,600台灣嘉義市西區大富東街38號,23.4643362,120.4162635,劉厝里,2015/3/1
10403(實價),透天厝,嘉義市嘉義市信興街78巷1~30號,34.5,4房/2廳/4衛,1 /共3層,39.35,18.15,--,#NAME?,13,510萬,600台灣嘉義市東區信興街78巷16號,23.4652788,120.4596551,頂寮里,2015/3/1
10403(實價),透天厝,嘉義市嘉義市民生南路403巷40弄1~30號,36.1,4房/4廳/3衛,1 /共2層,29.8,22.39,--,#NAME?,14.4,430萬,600台灣嘉義市西區民生南路850巷1弄30號,23.4545835,120.4393273,湖內里,2015/3/1
10403(實價),透天厝,嘉義市嘉義市大業街184巷31~60號,0.7,4房/3廳/3衛,1 /共3層,55.41,25.71,--,#NAME?,14.4,800萬,600台灣嘉義市東區大業街184巷33號,23.4610274,120.4508729,興安里,2015/3/1
10403(實價),透天厝,嘉義市嘉義市盧厝31~60號,4.7,4房/2廳/3衛,1 /共3層,66.01,61.23,--,#NAME?,14.6,965萬,600台灣嘉義市東區保義路60巷17號,23.5013395,120.4532965,後湖里,2015/3/1
10403(實價),透天厝,嘉義市嘉義市立仁路42巷1~30號,0.2,0房/0廳/0衛,1 /共4層,63.51,26.98,--,#NAME?,14.6,930萬,600台灣嘉義市東區立仁路141-1號,23.4641073,120.4622139,芳安里,2015/3/1
10403(實價),透天厝,嘉義市嘉義市福州八街1~30號,11.1,3房/2廳/3衛,1 /共3層,51.51,21.48,--,#NAME?,14.8,760萬,600台灣嘉義市西區福州八街13號,23.4638241,120.4310264,福民里,2015/3/1
10403(實價),透天厝,嘉義市嘉義市福州七街1~30號,25.9,4房/2廳/3衛,1 /共2層,46.16,25.11,--,#NAME?,14.9,690萬,600台灣嘉義市西區福州七街30號,23.4618875,120.4334259,福民里,2015/3/1
10403(實價),透天厝,嘉義市嘉義市光彩街211~240號,21.3,4房/2廳/4衛,1 /共5層,35.33,7.26,--,#NAME?,15.1,535萬,600台灣嘉義市東區光彩街185號,23.4786354,120.454195,民族里,2015/3/1
10403(實價),透天厝,嘉義市嘉義市立仁路42巷1~30號,0.2,0房/0廳/0衛,1 /共4層,66.63,27.89,--,#NAME?,15.2,1012萬,600台灣嘉義市東區立仁路141-1號,23.4641073,120.4622139,芳安里,2015/3/1
10403(實價),透天厝,嘉義市嘉義市忠孝路798巷1~30號,7.2,4房/2廳/4衛,1 /共3層,51.86,33.57,--,#NAME?,15.2,788萬,600台灣嘉義市東區忠孝路522-1號,23.4939767,120.452811,仁義里,2015/3/1
10403(實價),透天厝,嘉義市嘉義市吳鳳南路365巷118弄1~30號,39.2,4房/2廳/2衛,1 /共2層,25.94,18.76,--,#NAME?,15.4,400萬,600台灣嘉義市東區吳鳳南路30號,23.4712666,120.4539625,豐年里,2015/3/1
10403(實價),透天厝,嘉義市嘉義市玉山路931~960號,1.2,4房/2廳/3衛,1 /共4層,65.03,34.57,--,#NAME?,15.4,1000萬,600台灣嘉義市西區玉山路960號,23.4687193,120.406811,頭港里,2015/3/1
10403(實價),透天厝,嘉義市嘉義市光正街59巷1~30號,42.9,3房/1廳/1衛,1 /共1層,14.24,25.41,--,#NAME?,15.4,220萬,600台灣嘉義市東區光正街1號,23.4673603,120.4695777,蘭潭里,2015/3/1
10403(實價),店面(店鋪),嘉義市嘉義市仁愛路331~360號,18.5,7房/2廳/3衛,0 /共5層,180.83,39.02,--,#NAME?,15.5,2800萬,600台灣嘉義市西區仁愛路398-410號,23.4736556,120.4424013,新富里,2015/3/1
10403(實價),透天厝,嘉義市嘉義市大富一街1~30號,11.3,3房/2廳/3衛,1 /共3層,52.61,32.69,--,#NAME?,15.7,825萬,600台灣嘉義市西區大富一街30號,23.4621022,120.4162922,劉厝里,2015/3/1
10403(實價),透天厝,嘉義市嘉義市義教東路31~60號,8.8,5房/2廳/4衛,1 /共3層,62.27,31.46,--,#NAME?,15.7,980萬,600台灣嘉義市東區義教東路60號,23.4946364,120.4680834,新店里,2015/3/1
10403(實價),透天厝,嘉義市嘉義市立仁路42巷1~30號,0.2,0房/0廳/0衛,1 /共4層,55.63,28.19,--,#NAME?,15.7,876萬,600台灣嘉義市東區立仁路141-1號,23.4641073,120.4622139,芳安里,2015/3/1
10403(實價),透天厝,嘉義市嘉義市立仁路42巷1~30號,0.2,0房/0廳/0衛,1 /共4層,57.36,30.61,--,#NAME?,15.9,910萬,600台灣嘉義市東區立仁路141-1號,23.4641073,120.4622139,芳安里,2015/3/1
10403(實價),透天厝,嘉義市嘉義市立仁路42巷1~30號,0.2,0房/0廳/0衛,1 /共4層,56.35,30.31,--,#NAME?,15.9,898萬,600台灣嘉義市東區立仁路141-1號,23.4641073,120.4622139,芳安里,2015/3/1
10403(實價),透天厝,嘉義市嘉義市忠孝北街91~120號,10.8,6房/2廳/3衛,1 /共3層,50.15,31.46,--,#NAME?,15,750萬,600台灣嘉義市東區忠孝北街122號,23.5165961,120.4464509,荖藤里,2015/3/1
10403(實價),透天厝,嘉義市嘉義市遼寧二街31~60號,29.6,5房/2廳/2衛,1 /共2層,29.14,23.29,--,#NAME?,15,436萬,600台灣嘉義市西區遼寧二街43號,23.4931182,120.4401,新厝里,2015/3/1
10403(實價),透天厝,嘉義市嘉義市立仁路42巷1~30號,0.2,0房/0廳/0衛,1 /共4層,57.34,28.5,--,#NAME?,15,860萬,600台灣嘉義市東區立仁路141-1號,23.4641073,120.4622139,芳安里,2015/3/1
10403(實價),透天厝,嘉義市嘉義市大雅路二段448巷1~30號,41.8,3房/2廳/2衛,1 /共2層,14.96,37.81,--,#NAME?,16.1,241萬,600台灣嘉義市東區大雅路二段473號,23.4775692,120.4717124,長竹里,2015/3/1
10403(實價),透天厝,嘉義市嘉義市大雅路二段448巷1~30號,41.8,3房/2廳/2衛,1 /共2層,14.96,37.81,--,#NAME?,16.1,241萬,600台灣嘉義市東區大雅路二段473號,23.4775692,120.4717124,長竹里,2015/3/1
10403(實價),透天厝,嘉義市嘉義市立仁路42巷1~30號,0.2,0房/0廳/0衛,1 /共4層,54.24,27.59,--,#NAME?,16.4,890萬,600台灣嘉義市東區立仁路141-1號,23.4641073,120.4622139,芳安里,2015/3/1
10403(實價),透天厝,嘉義市嘉義市東義路109巷16弄1~30號,20.8,4房/3廳/5衛,1 /共4層,92.12,47.8,--,#NAME?,16.5,1520萬,600台灣嘉義市東區東義路109巷1號,23.4950314,120.4688871,後庄里,2015/3/1
10403(實價),透天厝,嘉義市嘉義市義教街117巷61~90號,38.2,1房/1廳/1衛,1 /共1層,15.06,30.86,--,#NAME?,16.6,250萬,600台灣嘉義市東區義教街117巷63號,23.4943518,120.4660376,新店里,2015/3/1
10403(實價),透天厝,嘉義市嘉義市友忠路827巷5弄1~30號,45.4,2房/1廳/1衛,1 /共1層,22.81,33.58,--,#NAME?,16.6,378萬,600台灣嘉義市西區友忠路827巷2弄30號,23.4873699,120.4416715,重興里,2015/3/1
10403(實價),透天厝,嘉義市嘉義市立仁路10巷1~30號,3.4,19房/1廳/19衛,1 /共4層,130.45,53.24,--,#NAME?,16.9,2200萬,600台灣嘉義市東區立仁路141-1號,23.4641073,120.4622139,芳安里,2015/3/1
10403(實價),透天厝,嘉義市嘉義市立仁路10巷1~30號,3.4,19房/1廳/19衛,1 /共4層,130.45,53.54,--,#NAME?,16.9,2200萬,600台灣嘉義市東區立仁路141-1號,23.4641073,120.4622139,芳安里,2015/3/1
10403(實價),透天厝,嘉義市嘉義市永春一街1~30號,9.8,5房/3廳/3衛,1 /共3層,54.26,34.79,--,#NAME?,16.9,916萬,600台灣嘉義市西區永春一街30號,23.4776669,120.4265968,西平里,2015/3/1
10403(實價),透天厝,嘉義市嘉義市頂福街42巷1~30號,1.2,4房/2廳/3衛,1 /共3層,41.65,19.97,--,#NAME?,16,666萬,找不到位址,無,無,無,2015/3/1
10403(實價),透天厝,嘉義市嘉義市溪興街6巷3弄1~30號,1.8,6房/2廳/6衛,1 /共5層,118.78,83.37,--,#NAME?,17.1,2036萬,600台灣嘉義市西區博愛路一段482巷30號,23.4864012,120.4425852,重興里,2015/3/1
10403(實價),透天厝,嘉義市嘉義市立仁路31~60號,0.2,0房/0廳/0衛,1 /共4層,84.19,29.4,--,#NAME?,17.2,1450萬,600台灣嘉義市東區立仁路38號,23.4656274,120.4658786,芳草里,2015/3/1
10403(實價),透天厝,嘉義市嘉義市興村里溪興街231巷22弄1~30號,30.9,5房/2廳/3衛,1 /共2層,55.29,62.32,--,#NAME?,17.2,950萬,600台灣嘉義市東區溪興街231巷22弄18號,23.4532015,120.4552755,興村里,2015/3/1
10403(實價),套房,嘉義市嘉義市忠孝路1~30號,24.3,1房/1廳/1衛,7 /共8層,9.72,1.18,--,#NAME?,17.3,168萬,600台灣嘉義市東區忠孝路522-1號,23.4939767,120.452811,仁義里,2015/3/1
10403(實價),透天厝,嘉義市嘉義市立仁路42巷1~30號,0.2,0房/0廳/0衛,1 /共4層,57.17,30.01,--,#NAME?,17.5,998萬,600台灣嘉義市東區立仁路141-1號,23.4641073,120.4622139,芳安里,2015/3/1
10403(實價),透天厝,嘉義市嘉義市福全街91~120號,2.8,4房/2廳/3衛,1 /共4層,77.82,42.27,--,#NAME?,17.5,1360萬,600台灣嘉義市西區福全街91號,23.4787884,120.4305936,福全里,2015/3/1
10403(實價),透天厝,嘉義市嘉義市大吉街61~90號,3.3,4房/3廳/3衛,1 /共3層,51.59,27.59,--,#NAME?,17.8,920萬,600台灣嘉義市西區大吉街63號,23.4652186,120.4180094,劉厝里,2015/3/1
10403(實價),透天厝,嘉義市嘉義市立仁路10巷1~30號,3.4,19房/0廳/19衛,1 /共4層,128.51,52.03,--,#NAME?,17.9,2300萬,600台灣嘉義市東區立仁路141-1號,23.4641073,120.4622139,芳安里,2015/3/1
10403(實價),透天厝,嘉義市嘉義市過溪271~300號,37.8,5房/1廳/4衛,1 /共2層,27.61,26.92,--,#NAME?,18.1,500萬,600台灣嘉義市東區過溪41號,23.4515886,120.4558931,興村里,2015/3/1
10403(實價),透天厝,嘉義市嘉義市友忠路931~960號,6,5房/2廳/5衛,1 /共4層,57.63,36.12,--,#NAME?,18.2,1050萬,600台灣嘉義市西區友忠路931號,23.4893478,120.4427651,重興里,2015/3/1
10403(實價),透天厝,嘉義市嘉義市四維路301~330號,5.4,5房/2廳/6衛,1 /共4層,65.55,28.13,--,#NAME?,18.3,1200萬,600台灣嘉義市西區四維路301號,23.4874057,120.4272811,福安里,2015/3/1
10403(實價),透天厝,嘉義市嘉義市文雅街301~330號,11.3,5房/2廳/2衛,1 /共4層,56.48,25.71,--,#NAME?,18.4,1040萬,600台灣嘉義市東區文雅街168號,23.4833501,120.4847978,文雅里,2015/3/1
10403(實價),透天厝,嘉義市嘉義市保安一路31~60號,0.2,4房/3廳/5衛,1 /共3層,63.66,28.74,--,#NAME?,18.5,1180萬,600台灣嘉義市西區保安一路60號,23.4937234,120.4406487,新厝里,2015/3/1
10403(實價),透天厝,嘉義市嘉義市保安一路361~390號,0.8,4房/1廳/4衛,1 /共4層,84.01,38.12,--,#NAME?,18.5,1550萬,600台灣嘉義市西區保安一路361號,23.4912002,120.4319529,保安里,2015/3/1
10403(實價),透天厝,嘉義市嘉義市立仁路42巷1~30號,0.2,0房/0廳/0衛,1 /共4層,55.42,27.89,--,#NAME?,18.6,1032萬,600台灣嘉義市東區立仁路141-1號,23.4641073,120.4622139,芳安里,2015/3/1
10403(實價),透天厝,嘉義市嘉義市吳鳳南路17巷1~30號,14.8,5房/3廳/5衛,1 /共4層,91.24,35.7,--,#NAME?,18.6,1700萬,600台灣嘉義市東區吳鳳南路17巷30號,23.4735075,120.4554959,興南里,2015/3/1
10403(實價),透天厝(含車位),嘉義市嘉義市大雅路一段368巷50弄31~60號,0.6,4房/2廳/4衛,1 /共3層,88.65,67.9,7.56,#NAME?,18.6,1650萬,600台灣嘉義市東區大雅路一段32號,23.4802408,120.5032865,盧厝里,2015/3/1
10403(實價),透天厝,嘉義市嘉義市義教街613巷121~150號,0.8,4房/2廳/3衛,1 /共4層,63.75,38.72,--,#NAME?,18.8,1198萬,600台灣嘉義市東區義教街613巷27號,23.4974333,120.4573681,頂庄里,2015/3/1
10403(實價),透天厝,嘉義市嘉義市立仁路42巷1~30號,0.2,0房/0廳/0衛,1 /共4層,54.24,26.68,--,#NAME?,19.5,1058萬,600台灣嘉義市東區立仁路141-1號,23.4641073,120.4622139,芳安里,2015/3/1
10403(實價),透天厝,嘉義市嘉義市圓福街118巷2弄61~90號,0.3,4房/3廳/5衛,1 /共3層,77.03,35.39,--,#NAME?,19.7,1520萬,600台灣嘉義市東區圓福街118巷2弄61號,23.488745,120.467621,王田里,2015/3/1
10403(實價),透天厝,嘉義市嘉義市仁愛一街1~30號,27.3,7房/3廳/5衛,1 /共4層,75.75,42.8,--,#NAME?,19.8,1500萬,600台灣嘉義市西區仁愛一街20-48號,23.4676094,120.4419765,自強里,2015/3/1
10403(實價),透天厝,嘉義市嘉義市玉山路541~570號,0.9,5房/3廳/5衛,1 /共5層,101.15,45.16,--,#NAME?,19.8,2000萬,600台灣嘉義市西區玉山路523-543號,23.4699774,120.4170123,劉厝里,2015/3/1
10403(實價),透天厝,嘉義市嘉義市南京東街70巷1~30號,39.3,3房/2廳/1衛,1 /共2層,23.3,16.94,--,#NAME?,20.1,468萬,600台灣嘉義市西區民生南路850巷1弄30號,23.4545835,120.4393273,湖內里,2015/3/1
10403(實價),店面(店鋪),嘉義市嘉義市新榮路121~150號,--,4房/2廳/3衛,1 /共3層,70.18,46.02,--,#NAME?,22.7,1593萬,600台灣嘉義市西區新榮路121號,23.4737573,120.4446604,新富里,2015/3/1
10403(實價),透天厝,嘉義市嘉義市世賢路四段391~420號,3.7,5房/2廳/4衛,1 /共4層,70.15,34.49,--,#NAME?,22.8,1600萬,600台灣嘉義市西區阿里山公路392號,23.4636318,120.4502301,美源里,2015/3/1
10403(實價),透天厝,嘉義市嘉義市永樂四街1~30號,1.3,4房/2廳/5衛,1 /共4層,70.9,37.81,--,#NAME?,23.3,1650萬,600台灣嘉義市西區永樂四街11號,23.4752745,120.423045,港坪里,2015/3/1
10403(實價),透天厝,嘉義市嘉義市自由路391~420號,3.1,6房/3廳/4衛,1 /共4層,49.13,27.83,--,#NAME?,23.8,1168萬,600台灣嘉義市西區自由路391號,23.4922147,120.4315143,保安里,2015/3/1
10403(實價),公寓,嘉義市嘉義市東洋新?151~180號,25.3,4房/2廳/3衛,1 /共2層,52.56,35.39,--,#NAME?,24.5,1290萬,600台灣嘉義市東區文雅街,23.4837986,120.487306,文雅里,2015/3/1
10403(實價),店面(店鋪),嘉義市嘉義市中山路1~30號,34.8,3房/1廳/3衛,1 /共7層,56,9.9,--,#NAME?,24.6,1380萬,600台灣嘉義市東區中山路46號,23.4825597,120.4608711,中山里,2015/3/1
10403(實價),店面(店鋪),嘉義市嘉義市文化路1~30號,7.6,3房/2廳/4衛,1 /共4層,76.14,39.48,--,#NAME?,25,1900萬,600台灣嘉義市西區垂楊路402號,23.4741274,120.4497741,文化里,2015/3/1
10403(實價),店面(店鋪),嘉義市嘉義市八德路271~300號,1.2,4房/3廳/3衛,1 /共3層,52.68,23.6,--,#NAME?,27.1,1430萬,600台灣嘉義市西區八德路300號,23.490958,120.430367,保安里,2015/3/1
10403(實價),透天厝,嘉義市嘉義市金龍街91~120號,0,5房/2廳/6衛,1 /共4層,97.31,59.59,--,#NAME?,27.2,2650萬,600台灣嘉義市東區金龍街91號,23.4774845,120.4660093,東川里,2015/3/1
10403(實價),透天厝,嘉義市嘉義市光彩街541~570號,0.8,10房/2廳/12衛,1 /共5層,103.38,27.77,--,#NAME?,28.1,2900萬,600台灣嘉義市西區光彩街541號,23.477635,120.4437435,書院里,2015/3/1
10403(實價),公寓,嘉義市嘉義市盧厝里東洋新?271~300號,29.3,0房/0廳/0衛,4 /共5層,14.07,3.55,--,#NAME?,3.6,50萬,找不到位址,無,無,無,2015/3/1
10403(實價),華廈,嘉義市嘉義市共和路61~90號,33.9,2房/2廳/2衛,5 /共9層,11.16,1.7,--,#NAME?,3.9,43萬,600台灣嘉義市東區共和路186-206號,23.4792446,120.4555668,民族里,2015/3/1
10403(實價),透天厝,嘉義市嘉義市五福街18巷1~30號,36.6,5房/2廳/2衛,1 /共2層,41,49.31,--,#NAME?,30.5,1250萬,600台灣嘉義市東區五福街18巷1號,23.486983,120.468528,王田里,2015/3/1
10403(實價),公寓,嘉義市嘉義市林森東路269巷38弄1~30號,22.4,2房/2廳/1衛,5 /共5層,41.51,13.29,--,#NAME?,4.3,180萬,600台灣嘉義市東區林森東路269巷1弄30號,23.4901012,120.4654374,新店里,2015/3/1
10403(實價),公寓,嘉義市嘉義市興村里35鄰溪興街153巷12弄1~30號,32.3,3房/1廳/2衛,5 /共5層,33.04,9.95,--,#NAME?,4.3,142萬,找不到位址,無,無,無,2015/3/1
10403(實價),住宅大樓,嘉義市嘉義市國揚一街1~30號,20.2,4房/2廳/2衛,5 /共12層,49.29,0,--,#NAME?,4.6,225萬,600台灣嘉義市西區國揚一街16號,23.4871555,120.4283775,保福里,2015/3/1
10403(實價),透天厝,嘉義市嘉義市保成路47巷1~30號,0.5,5房/2廳/3衛,1 /共4層,80.79,0,--,#NAME?,4.7,381萬,600台灣嘉義市東區保成路81巷46號,23.502603,120.4549625,後湖里,2015/3/1
10403(實價),住宅大樓,嘉義市嘉義市志昇街91~120號,10.3,3房/2廳/2衛,8 /共14層,62.31,14.71,--,#NAME?,4.8,300萬,600台灣嘉義市西區志昇街79號,23.4691128,120.4430855,翠岱里,2015/3/1
10403(實價),公寓,嘉義市嘉義市仁義新村1~30號,32.8,3房/1廳/1衛,5 /共5層,25.03,12.84,--,#NAME?,4.8,120萬,600台灣嘉義市東區紅毛埤119號,23.4604342,120.4847725,鹿寮里,2015/3/1
10403(實價),住宅大樓,嘉義市嘉義市小雅路181~210號,21.8,3房/1廳/1衛,8 /共16層,37.07,4.43,--,#NAME?,4.9,180萬,600台灣嘉義市東區小雅路185號,23.4726044,120.4740688,蘭潭里,2015/3/1
10403(實價),透天厝,嘉義市嘉義市延平街61~90號,79.2,2房/2廳/1衛,1 /共1層,10.31,20.27,--,#NAME?,48.5,500萬,600台灣嘉義市東區延平街61號,23.4775949,120.4581781,華南里,2015/3/1
10403(實價),透天厝,嘉義市嘉義市世賢路一段601~630號,35.6,2房/1廳/1衛,1 /共1層,12.71,32.67,--,#NAME?,48.9,620萬,600台灣嘉義市西區世賢路一段601號,23.4921739,120.4303935,保安里,2015/3/1
10403(實價),店面(店鋪),嘉義市嘉義市文化路211~240號,46.4,5房/2廳/5衛,1 /共2層,49.36,19.66,--,#NAME?,49.8,2460萬,600台灣嘉義市東區文化路211號,23.4817831,120.4490584,中央里,2015/3/1
10403(實價),華廈(含車位),嘉義市嘉義市竹子腳1~30號,22.6,3房/2廳/2衛,9 /共10層,48.49,8.49,--,#NAME?,5.2,250萬,600台灣嘉義市西區竹子腳巷21號,23.4943783,120.3974321,竹村里,2015/3/1
10403(實價),住宅大樓,嘉義市嘉義市德明路61~90號,19.6,2房/1廳/1衛,12 /共18層,49.56,4.15,--,#NAME?,5.2,260萬,600台灣嘉義市西區德明路90號,23.4814836,120.4320387,福全里,2015/3/1
10403(實價),透天厝,嘉義市嘉義市下埤里2鄰頂埤1~30號,35.3,3房/2廳/2衛,1 /共2層,41.37,38.92,--,#NAME?,5.3,220萬,找不到位址,無,無,無,2015/3/1
10403(實價),套房,嘉義市嘉義市小雅路181~210號,21.8,1房/1廳/1衛,4 /共16層,11.82,1.4,--,#NAME?,5.3,63萬,600台灣嘉義市東區小雅路185號,23.4726044,120.4740688,蘭潭里,2015/3/1
10403(實價),透天厝,嘉義市嘉義市保建街121~150號,35.2,5房/3廳/3衛,1 /共3層,37.43,20.57,--,#NAME?,5.6,210萬,600台灣嘉義市東區保建街107-123號,23.5005182,120.4524456,後湖里,2015/3/1
10403(實價),公寓,嘉義市嘉義市宣信街241~270號,31.5,3房/1廳/1衛,3 /共5層,37.85,11.14,--,#NAME?,5.8,220萬,600台灣嘉義市東區宣信街252號,23.4688122,120.4604129,芳草里,2015/3/1
10403(實價),住宅大樓,嘉義市嘉義市小雅路181~210號,21.8,1房/0廳/1衛,5 /共16層,11.95,1.44,--,#NAME?,5.9,70萬,600台灣嘉義市東區小雅路185號,23.4726044,120.4740688,蘭潭里,2015/3/1
10403(實價),華廈,嘉義市嘉義市溫州二街91~120號,23.3,1房/1廳/1衛,4 /共6層,14.68,2.8,--,#NAME?,5,73萬,600台灣嘉義市西區溫州二街106號,23.4643282,120.4368017,福民里,2015/3/1
10403(實價),華廈,嘉義市嘉義市溫州二街91~120號,23.3,1房/0廳/1衛,4 /共6層,10.63,2.17,--,#NAME?,6.1,65萬,600台灣嘉義市西區溫州二街106號,23.4643282,120.4368017,福民里,2015/3/1
10403(實價),住宅大樓,嘉義市嘉義市南京路61~90號,21.3,3房/2廳/2衛,4 /共12層,37.76,3.76,--,#NAME?,6.1,230萬,600台灣嘉義市西區南京路61號,23.456272,120.44052,湖內里,2015/3/1
10403(實價),透天厝,嘉義市嘉義市大業街60巷1~30號,37.8,3房/2廳/2衛,1 /共2層,26.53,17.55,--,#NAME?,6.2,165萬,600台灣嘉義市東區大業街60巷66號,23.4629501,120.4539423,安業里,2015/3/1
10403(實價),住宅大樓,嘉義市嘉義市小雅路181~210號,21.8,1房/1廳/1衛,15 /共16層,34.95,4.18,--,#NAME?,6.3,221萬,600台灣嘉義市東區小雅路185號,23.4726044,120.4740688,蘭潭里,2015/3/1
10403(實價),套房,嘉義市嘉義市小雅路181~210號,21.8,1房/1廳/1衛,3 /共16層,16.64,1.98,--,#NAME?,6.3,105萬,600台灣嘉義市東區小雅路185號,23.4726044,120.4740688,蘭潭里,2015/3/1
10403(實價),華廈,嘉義市嘉義市垂楊路631~660號,30.7,1房/2廳/1衛,7 /共10層,20.48,2.04,--,#NAME?,6.3,130萬,600台灣嘉義市西區垂楊路611號,23.4725353,120.43788,新西里,2015/3/1
10403(實價),套房,嘉義市嘉義市安和街31~60號,21.4,1房/1廳/1衛,4 /共6層,10.08,2.01,--,#NAME?,6.4,65萬,600台灣嘉義市東區安和街31號,23.475988,120.4583987,朝陽里,2015/3/1
10403(實價),套房,嘉義市嘉義市忠順一街1~30號,22,1房/0廳/1衛,7 /共8層,10.91,1.49,--,#NAME?,6.4,70萬,600台灣嘉義市西區忠順一街30號,23.4842808,120.4345523,竹圍里,2015/3/1
10403(實價),華廈,嘉義市嘉義市忠順一街1~30號,22,2房/1廳/1衛,2 /共8層,15.09,2.04,--,#NAME?,6.4,97萬,600台灣嘉義市西區忠順一街30號,23.4842808,120.4345523,竹圍里,2015/3/1
10403(實價),華廈,嘉義市嘉義市國安三街1~30號,22.2,3房/1廳/2衛,7 /共7層,45.71,8.18,--,#NAME?,6.6,300萬,600台灣嘉義市西區國安三街9號,23.4900374,120.4294401,保福里,2015/3/1
10403(實價),住宅大樓(含車位),嘉義市嘉義市博東路91~120號,17,3房/2廳/2衛,8 /共22層,46.84,4.62,--,#NAME?,6.6,308萬,600台灣嘉義市東區博東路24-80號,23.4905823,120.4615667,太平里,2015/3/1
10403(實價),華廈,嘉義市嘉義市重慶路361~390號,21.4,2房/1廳/1衛,7 /共7層,10.97,1.79,--,#NAME?,6.8,75萬,600台灣嘉義市西區重慶路373號,23.4628796,120.4315962,福民里,2015/3/1
10403(實價),住宅大樓(含車位),嘉義市嘉義市新民路391~420號,20.7,2房/2廳/1衛,6 /共12層,29.35,4.31,--,#NAME?,6.8,200萬,600台灣嘉義市西區新民路420號,23.4602379,120.4407319,光路里,2015/3/1
10403(實價),透天厝,嘉義市嘉義市吳鳳南路521巷16弄31~60號,33.9,0房/0廳/0衛,1 /共3層,51.36,18.15,--,#NAME?,6.8,350萬,600台灣嘉義市東區吳鳳南路521巷16弄70號,23.4624708,120.4590044,安寮里,2015/3/1
10403(實價),華廈,嘉義市嘉義市金龍街31~60號,21.3,3房/2廳/2衛,1 /共7層,34.54,7.58,--,#NAME?,6.8,236萬,600台灣嘉義市東區金龍街33-35號,23.4789667,120.4707766,東川里,2015/3/1
10403(實價),華廈(含車位),嘉義市嘉義市光彩街481~510號,21.9,1房/1廳/1衛,#NAME?,20.64,1.84,--,#NAME?,6.9,142萬,600台灣嘉義市西區光彩街481號,23.4778376,120.4459949,西榮里,2015/3/1
10403(實價),華廈,嘉義市嘉義市永春三街1~30號,22.6,3房/2廳/2衛,4 /共10層,41.77,5.84,--,#NAME?,6,250萬,600台灣嘉義市西區永春三街32號,23.4783622,120.4259589,西平里,2015/3/1
10403(實價),透天厝,嘉義市嘉義市新榮路181~210號,25.4,8房/5廳/5衛,1 /共5層,41.99,0,--,#NAME?,6,250萬,600台灣嘉義市西區新榮路181號,23.4750281,120.4445124,新富里,2015/3/1
10403(實價),住宅大樓,嘉義市嘉義市保建街31~60號,21.8,2房/2廳/1衛,4 /共13層,41.99,3.72,--,#NAME?,7.1,300萬,600台灣嘉義市東區保建街60號,23.5006199,120.4530035,後湖里,2015/3/1
10403(實價),華廈,嘉義市嘉義市延平街391~420號,18.3,3房/2廳/1衛,3 /共8層,41.82,4.2,--,#NAME?,7.1,298萬,600台灣嘉義市西區延平街420號,23.4762336,120.443003,書院里,2015/3/1
10403(實價),套房,嘉義市嘉義市蘭井街451~480號,22.2,1房/0廳/1衛,13 /共15層,8.1,0.67,--,#NAME?,7.2,58萬,600台灣嘉義市西區蘭井街449號,23.4767978,120.4426592,書院里,2015/3/1
10403(實價),住宅大樓,嘉義市嘉義市彌陀路121~150號,19,2房/1廳/1衛,20 /共20層,21.4,1.48,--,#NAME?,7.2,155萬,600台灣嘉義市東區彌陀路121號,23.4666592,120.4667133,芳草里,2015/3/1
10403(實價),透天厝,嘉義市嘉義市宣信街111巷31~60號,41.3,2房/2廳/1衛,1 /共2層,20.75,15.13,--,#NAME?,7.2,150萬,600台灣嘉義市東區宣信街31號,23.4650927,120.46362,芳安里,2015/3/1
10403(實價),透天厝,嘉義市嘉義市溪興街231巷24弄61~90號,25.4,3房/2廳/1衛,1 /共3層,57.98,24.81,--,#NAME?,7.3,426萬,600台灣嘉義市東區溪興街231巷24弄46號,23.4525425,120.4554678,興村里,2015/3/1
10403(實價),住宅大樓,嘉義市嘉義市民權路361~390號,18,1房/0廳/1衛,11 /共12層,14.97,1.23,--,#NAME?,7.3,109萬,600台灣嘉義市東區民權路361號,23.4824481,120.4508026,中央里,2015/3/1
10403(實價),華廈(含車位),嘉義市嘉義市興仁街91~120號,22,3房/1廳/2衛,5 /共7層,39.39,7.37,--,#NAME?,7.4,290萬,600台灣嘉義市東區興仁街101號,23.4576692,120.4623609,興仁里,2015/3/1
10403(實價),套房,嘉義市嘉義市北鎮街34巷1~30號,24.8,1房/1廳/1衛,6 /共6層,17.36,3.73,--,#NAME?,7.5,130萬,600台灣嘉義市西區北鎮街25巷21號,23.4883155,120.4322644,竹圍里,2015/3/1
10403(實價),透天厝,嘉義市嘉義市彌陀路241巷61~90號,39.5,2房/2廳/2衛,1 /共2層,18.42,15.73,--,#NAME?,7.6,140萬,600台灣嘉義市東區彌陀路90號,23.4668193,120.4673697,短竹里,2015/3/1
10403(實價),透天厝,嘉義市嘉義市撫順三街61~90號,31.9,3房/3廳/3衛,1 /共2層,37.68,30.86,--,#NAME?,7.7,290萬,600台灣嘉義市西區撫順三街62號,23.4904434,120.4394763,新厝里,2015/3/1
10403(實價),透天厝,嘉義市嘉義市自強街84巷85弄1~30號,37.1,4房/2廳/3衛,1 /共2層,30.75,20.57,--,#NAME?,7.8,240萬,600台灣嘉義市西區自強街84巷30號,23.4655348,120.4217281,劉厝里,2015/3/1
10403(實價),住宅大樓,嘉義市嘉義市忠孝路781~810號,19.4,1房/1廳/1衛,9 /共11層,11.43,1.69,--,#NAME?,7.9,90萬,600台灣嘉義市東區忠孝路782號,23.5097412,120.4461873,荖藤里,2015/3/1
10403(實價),華廈,嘉義市嘉義市永春一街1~30號,17.8,3房/1廳/2衛,6 /共6層,47.87,9.48,--,#NAME?,7.9,380萬,600台灣嘉義市西區永春一街30號,23.4776669,120.4265968,西平里,2015/3/1
10403(實價),住宅大樓(含車位),嘉義市嘉義市興村街61~90號,23.8,2房/2廳/1衛,5 /共15層,29.74,3.72,--,#NAME?,7.9,235萬,600台灣嘉義市東區興村街47號,23.4551162,120.4576823,興村里,2015/3/1
10403(實價),華廈,嘉義市嘉義市永福三街1~30號,22.3,3房/2廳/2衛,4 /共7層,38.41,6.48,--,#NAME?,7,267萬,600台灣嘉義市西區永福三街30號,23.4736996,120.4249398,磚?里,2015/3/1
10403(實價),套房,嘉義市嘉義市新民路707巷1~30號,17.8,1房/1廳/1衛,5 /共7層,15.63,2.81,--,#NAME?,8.1,127萬,600台灣嘉義市西區新民路707巷2號,23.4690412,120.4395523,垂楊里,2015/3/1
10403(實價),華廈,嘉義市嘉義市南京路61~90號,21.3,2房/1廳/1衛,5 /共12層,20.4,2.07,--,#NAME?,8.1,165萬,600台灣嘉義市西區南京路61號,23.456272,120.44052,湖內里,2015/3/1
10403(實價),透天厝,嘉義市嘉義市國治街1~30號,21.5,5房/2廳/3衛,1 /共5層,67.84,27.94,--,#NAME?,8.1,550萬,600台灣嘉義市西區國治街30號,23.4877119,120.429749,保福里,2015/3/1
10403(實價),住宅大樓,嘉義市嘉義市德安路1~30號,20.7,3房/1廳/1衛,9 /共14層,24.71,2.14,--,#NAME?,8.1,200萬,600台灣嘉義市西區德安路3號,23.4841059,120.4334466,竹圍里,2015/3/1
10403(實價),透天厝,嘉義市嘉義市民生南路485巷1~30號,33.8,4房/1廳/2衛,1 /共3層,43.88,21.48,--,#NAME?,8.2,358萬,600台灣嘉義市西區民生南路850巷1弄30號,23.4545835,120.4393273,湖內里,2015/3/1
10403(實價),住宅大樓,嘉義市嘉義市德安路1~30號,20.7,3房/2廳/2衛,8 /共14層,47.31,3.94,--,#NAME?,8.2,390萬,600台灣嘉義市西區德安路3號,23.4841059,120.4334466,竹圍里,2015/3/1
10403(實價),套房,嘉義市嘉義市忠孝路781~810號,19.4,1房/1廳/1衛,9 /共11層,13.42,1.98,--,#NAME?,8.2,110萬,600台灣嘉義市東區忠孝路782號,23.5097412,120.4461873,荖藤里,2015/3/1
10403(實價),透天厝,嘉義市嘉義市北港路31~60號,50.5,0房/0廳/0衛,1 /共3層,48.94,25.11,--,#NAME?,8.2,400萬,600台灣嘉義市西區北港路196-198號,23.4770479,120.4353905,福全里,2015/3/1
10403(實價),住宅大樓,嘉義市嘉義市世賢路一段511~540號,15.7,3房/2廳/2衛,2 /共14層,33.03,3.31,--,#NAME?,8.2,270萬,600台灣嘉義市西區世賢路一段511號,23.4937076,120.4327305,保生里,2015/3/1
10403(實價),華廈,嘉義市嘉義市新建街31~60號,20.8,2房/2廳/2衛,5 /共7層,11.41,2.1,--,#NAME?,8.3,95萬,600台灣嘉義市西區新建街16號,23.468731,120.4387561,垂楊里,2015/3/1
10403(實價),住宅大樓(含車位),嘉義市嘉義市新民路751~780號,20.3,3房/1廳/2衛,10 /共15層,45.97,5.06,--,#NAME?,8.3,380萬,600台灣嘉義市西區新民路755號,23.4698902,120.4396623,垂楊里,2015/3/1
10403(實價),住宅大樓(含車位),嘉義市嘉義市西區保福里2林國賢一街61~90號,22.8,4房/2廳/2衛,14 /共15層,74.63,7.06,--,#NAME?,8.4,630萬,600台灣嘉義市西區國賢一街2號,23.484675,120.4304198,保福里,2015/3/1
10403(實價),華廈,嘉義市嘉義市安和街31~60號,21.4,1房/1廳/1衛,6 /共6層,9.4,1.9,--,#NAME?,8.5,80萬,600台灣嘉義市東區安和街31號,23.475988,120.4583987,朝陽里,2015/3/1
10403(實價),住宅大樓(含車位),嘉義市嘉義市新民路751~780號,20.3,3房/1廳/2衛,10 /共15層,47.11,5.12,--,#NAME?,8.5,400萬,600台灣嘉義市西區新民路755號,23.4698902,120.4396623,垂楊里,2015/3/1
10403(實價),住宅大樓(含車位),嘉義市嘉義市興達路691~720號,20.3,3房/2廳/2衛,7 /共14層,41.88,5.06,--,#NAME?,8.5,357萬,600台灣嘉義市西區興達路720號,23.484763,120.4253362,福安里,2015/3/1
10403(實價),住宅大樓,嘉義市嘉義市友愛路481~510號,15.3,3房/2廳/2衛,12 /共12層,34.28,3.75,--,#NAME?,8.5,290萬,600台灣嘉義市西區友愛路510號,23.4886401,120.4349389,保安里,2015/3/1
10403(實價),住宅大樓(含車位),嘉義市嘉義市新榮路35巷1~30號,10.4,4房/2廳/2衛,3 /共14層,64.73,11.18,--,#NAME?,8.5,550萬,600台灣嘉義市西區新榮路1號,23.4689591,120.4451514,致遠里,2015/3/1
10403(實價),套房,嘉義市嘉義市中正路391~420號,19,1房/0廳/1衛,10 /共11層,9.29,0.41,--,#NAME?,8.6,80萬,600台灣嘉義市西區中正路383-399號,23.4788021,120.4495005,文化里,2015/3/1
10403(實價),華廈,嘉義市嘉義市德陽街1~30號,22,3房/2廳/2衛,4 /共6層,38.42,6.44,--,#NAME?,8.6,330萬,600台灣嘉義市西區德陽街31號,23.4835889,120.4329751,竹圍里,2015/3/1
10403(實價),華廈,嘉義市嘉義市泰瑞四街61~90號,16.8,3房/2廳/2衛,3 /共6層,41.7,7.66,--,#NAME?,8.6,358萬,600台灣嘉義市西區泰瑞四街78號,23.4854296,120.4269669,福安里,2015/3/1
10403(實價),住宅大樓(含車位),嘉義市嘉義市志昇街91~120號,10.3,3房/2廳/2衛,5 /共14層,61.96,14.71,--,#NAME?,8.7,540萬,600台灣嘉義市西區志昇街79號,23.4691128,120.4430855,翠岱里,2015/3/1
10403(實價),住宅大樓,嘉義市嘉義市友愛路481~510號,15.3,3房/2廳/2衛,6 /共12層,34.33,3.75,--,#NAME?,8.7,300萬,600台灣嘉義市西區友愛路510號,23.4886401,120.4349389,保安里,2015/3/1
10403(實價),住宅大樓,嘉義市嘉義市友愛路481~510號,15.3,2房/1廳/1衛,4 /共12層,26.54,2.92,--,#NAME?,8.7,230萬,600台灣嘉義市西區友愛路510號,23.4886401,120.4349389,保安里,2015/3/1
10403(實價),住宅大樓,嘉義市嘉義市德明路61~90號,19.6,4房/2廳/2衛,14 /共18層,49.18,4.27,--,#NAME?,8.7,428萬,600台灣嘉義市西區德明路90號,23.4814836,120.4320387,福全里,2015/3/1
10403(實價),住宅大樓,嘉義市嘉義市博東路151~180號,17,3房/1廳/2衛,13 /共22層,36.28,4.38,--,#NAME?,8.8,320萬,600台灣嘉義市東區博東路80-112號,23.4908563,120.4605339,太平里,2015/3/1
10403(實價),住宅大樓(含車位),嘉義市嘉義市玉山路158巷91~120號,19.7,3房/2廳/2衛,5 /共12層,36.31,4.94,--,#NAME?,8.8,320萬,600台灣嘉義市西區玉山路104號,23.4726976,120.4290426,磚?里,2015/3/1
10403(實價),住宅大樓,嘉義市嘉義市興達路481~510號,20.3,3房/2廳/2衛,14 /共16層,34.22,3.53,--,#NAME?,8.8,300萬,600台灣嘉義市西區興達路480號,23.484986,120.431949,竹圍里,2015/3/1
10403(實價),透天厝,嘉義市嘉義市芳安路416巷1~30號,45.2,6房/2廳/3衛,1 /共2層,29.17,20.34,--,#NAME?,8.9,261萬,600台灣嘉義市東區芳安路1號,23.4688333,120.4654,芳草里,2015/3/1
10403(實價),住宅大樓,嘉義市嘉義市八德路121~150號,21.1,3房/2廳/2衛,9 /共12層,34.19,4.35,--,#NAME?,8.9,303萬,600台灣嘉義市西區八德路117-127號,23.4858281,120.4305602,保福里,2015/3/1
10403(實價),套房,嘉義市嘉義市吳鳳南路547巷1~30號,24.3,1房/1廳/1衛,1 /共7層,8.46,1.55,--,#NAME?,8.9,75萬,600台灣嘉義市東區吳鳳南路547巷3號,23.4606688,120.4577884,安寮里,2015/3/1
10403(實價),住宅大樓,嘉義市嘉義市德惠街31~60號,20.8,3房/2廳/2衛,8 /共12層,38.77,3.21,--,#NAME?,8.9,346萬,600台灣嘉義市西區德惠街32-34號,23.4837156,120.432457,竹圍里,2015/3/1
10403(實價),華廈,嘉義市嘉義市嘉北街97巷18弄1~30號,22.3,4房/2廳/2衛,2 /共7層,42.91,8.07,--,#NAME?,8.9,380萬,600台灣嘉義市東區嘉北街30號,23.4938508,120.4556015,仁義里,2015/3/1
10403(實價),住宅大樓,嘉義市嘉義市世賢路一段631~660號,20.7,3房/2廳/2衛,12 /共12層,42.72,3.85,--,#NAME?,8.9,380萬,600台灣嘉義市西區世賢路一段630號,23.4931556,120.4301178,保安里,2015/3/1
10403(實價),住宅大樓(含車位),嘉義市嘉義市德明路151~180號,20.8,3房/2廳/2衛,4 /共12層,37.15,3.06,--,#NAME?,8.9,330萬,600台灣嘉義市西區德明路151號,23.483611,120.4316578,竹圍里,2015/3/1
10403(實價),住宅大樓,嘉義市嘉義市德明路37巷1~30號,20.3,3房/2廳/3衛,1 /共11層,65.09,9.83,--,#NAME?,8,520萬,600台灣嘉義市西區德明路37巷6號,23.481103,120.4315733,福全里,2015/3/1
10403(實價),住宅大樓(含車位),嘉義市嘉義市博東路91~120號,17,4房/2廳/2衛,11 /共22層,53.86,5.6,--,#NAME?,8,430萬,600台灣嘉義市東區博東路24-80號,23.4905823,120.4615667,太平里,2015/3/1
10403(實價),住宅大樓,嘉義市嘉義市博東路1~30號,20.8,1房/1廳/1衛,11 /共12層,19.7,3.03,--,#NAME?,9.1,180萬,600台灣嘉義市東區博東路1號,23.4902251,120.4560186,仁義里,2015/3/1
10403(實價),華廈(含車位),嘉義市嘉義市崇文街121~150號,24.2,5房/3廳/4衛,6 /共6層,121.63,25.56,--,#NAME?,9.1,1108萬,600台灣嘉義市東區崇文街121號,23.4721348,120.4531575,豐年里,2015/3/1
10403(實價),住宅大樓,嘉義市嘉義市彌陀路121~150號,19,2房/1廳/1衛,9 /共20層,18.7,1.48,--,#NAME?,9.1,170萬,600台灣嘉義市東區彌陀路121號,23.4666592,120.4667133,芳草里,2015/3/1
10403(實價),住宅大樓,嘉義市嘉義市玉山路158巷91~120號,19.7,3房/2廳/2衛,9 /共12層,36.31,4.94,--,#NAME?,9.1,330萬,600台灣嘉義市西區玉山路104號,23.4726976,120.4290426,磚?里,2015/3/1
10403(實價),華廈,嘉義市嘉義市盧厝91~120號,24.9,3房/2廳/2衛,5 /共7層,36.85,7.64,--,#NAME?,9.1,336萬,600台灣嘉義市西區民生南路120巷1號,23.469895,120.4465293,致遠里,2015/3/1
10403(實價),住宅大樓,嘉義市嘉義市德明路61~90號,19.6,3房/2廳/2衛,7 /共19層,36.07,2.89,--,#NAME?,9.1,328萬,600台灣嘉義市西區德明路90號,23.4814836,120.4320387,福全里,2015/3/1
10403(實價),住宅大樓(含車位),嘉義市嘉義市興達路691~720號,20.3,3房/2廳/2衛,7 /共14層,38.11,4.57,--,#NAME?,9.1,348萬,600台灣嘉義市西區興達路720號,23.484763,120.4253362,福安里,2015/3/1
10403(實價),透天厝,嘉義市嘉義市林森東路269巷80弄31~60號,12.5,4房/2廳/3衛,1 /共3層,47.77,25.25,--,#NAME?,9.2,438萬,600台灣嘉義市東區林森東路60號,23.4867484,120.4566382,林森里,2015/3/1
10403(實價),華廈,嘉義市嘉義市嘉北街97巷1~30號,23.3,3房/2廳/1衛,3 /共7層,28.65,4.59,--,#NAME?,9.2,265萬,600台灣嘉義市東區嘉北街30號,23.4938508,120.4556015,仁義里,2015/3/1
10403(實價),住宅大樓(含車位),嘉義市嘉義市永安街331~360號,10.4,3房/2廳/2衛,7 /共12層,56.66,9.98,--,#NAME?,9.2,520萬,600台灣嘉義市西區永安街331號,23.4703467,120.4464733,導明里,2015/3/1
10403(實價),華廈,嘉義市嘉義市北港路241~270號,20.8,3房/2廳/2衛,9 /共10層,36.71,5.69,--,#NAME?,9.3,341萬,600台灣嘉義市西區北港路244號,23.4781834,120.433642,福全里,2015/3/1
10403(實價),住宅大樓(含車位),嘉義市嘉義市博東路1~30號,20.8,3房/1廳/2衛,5 /共12層,38.92,5.45,--,#NAME?,9.3,360萬,600台灣嘉義市東區博東路1號,23.4902251,120.4560186,仁義里,2015/3/1
10403(實價),透天厝,嘉義市嘉義市後庄里11鄰林森東路319巷1~30號,32.8,4房/2廳/2衛,1 /共3層,56.61,23.29,--,#NAME?,9.4,530萬,600台灣嘉義市東區林森東路319巷1號,23.4916323,120.4691315,後庄里,2015/3/1
10403(實價),華廈,嘉義市嘉義市民樂街61~90號,21.2,3房/2廳/2衛,6 /共7層,35.23,5.22,--,#NAME?,9.4,330萬,600台灣嘉義市東區民樂街61號,23.4812002,120.4583705,東興里,2015/3/1
10403(實價),住宅大樓,嘉義市嘉義市友愛路481~510號,15.3,3房/2廳/2衛,8 /共12層,32.81,3.75,--,#NAME?,9.4,310萬,600台灣嘉義市西區友愛路510號,23.4886401,120.4349389,保安里,2015/3/1
10403(實價),華廈,嘉義市嘉義市康樂街211~240號,23.2,2房/2廳/1衛,5 /共6層,23.4,4,--,#NAME?,9.4,220萬,600台灣嘉義市西區康樂街211號,23.4744416,120.4437666,新富里,2015/3/1
10403(實價),華廈,嘉義市嘉義市國揚四街1~30號,22,3房/2廳/2衛,6 /共6層,40.57,8.05,--,#NAME?,9.4,380萬,600台灣嘉義市西區國揚一街101號,23.4868788,120.4263032,福安里,2015/3/1
10403(實價),住宅大樓,嘉義市嘉義市興達路541~570號,20.9,3房/2廳/2衛,9 /共12層,34.67,4.17,--,#NAME?,9.5,328萬,600台灣嘉義市西區興達路543號,23.4849038,120.4292597,保福里,2015/3/1
10403(實價),住宅大樓,嘉義市嘉義市永安街331~360號,10.4,3房/2廳/2衛,2 /共12層,56.66,9.98,--,#NAME?,9.5,536萬,600台灣嘉義市西區永安街331號,23.4703467,120.4464733,導明里,2015/3/1
10403(實價),住宅大樓(含車位),嘉義市嘉義市世賢路三段151~180號,21.4,4房/2廳/2衛,9 /共12層,36.4,3.71,--,#NAME?,9.6,350萬,600台灣嘉義市西區世賢路三段151號,23.463308,120.4308058,福民里,2015/3/1
10403(實價),套房,嘉義市嘉義市蘭井街151~180號,24.2,1房/1廳/1衛,1 /共6層,9.12,1.37,--,#NAME?,9.6,88萬,600台灣嘉義市東區蘭井街155號,23.4775913,120.4516521,中央里,2015/3/1
10403(實價),華廈,嘉義市嘉義市林森東路211巷1~30號,25.2,4房/2廳/2衛,3 /共7層,46.52,10.11,--,#NAME?,9.7,450萬,600台灣嘉義市東區林森東路269巷1弄30號,23.4901012,120.4654374,新店里,2015/3/1
10403(實價),店面(店鋪),嘉義市嘉義市杭州四街91~120號,26.2,2房/2廳/2衛,1 /共7層,31.85,8.11,--,#NAME?,9.7,310萬,600台灣嘉義市西區杭州四街98號,23.467645,120.4452009,美源里,2015/3/1
10403(實價),住宅大樓(含車位),嘉義市嘉義市志昇街1~30號,10.3,3房/2廳/2衛,9 /共14層,55.55,11.43,--,#NAME?,9.7,540萬,600台灣嘉義市西區仁愛路159巷22號,23.4689729,120.4422175,自強里,2015/3/1
10403(實價),華廈,嘉義市嘉義市世賢路四段456巷1~30號,18.5,3房/2廳/2衛,1 /共7層,38.64,7.34,--,#NAME?,9.7,375萬,600台灣嘉義市西區世賢路四段350巷27弄1號,23.462494,120.4502358,美源里,2015/3/1
10403(實價),華廈(含車位),嘉義市嘉義市友孝路31~60號,20.6,3房/2廳/2衛,2 /共7層,37.68,6.66,--,#NAME?,9.7,365萬,600台灣嘉義市西區友孝路60號,23.4809912,120.4356495,竹圍里,2015/3/1
10403(實價),華廈(含車位),嘉義市嘉義市雙竹街1~30號,21.3,3房/2廳/1衛,6 /共7層,40.02,7.6,--,#NAME?,9.7,390萬,600台灣嘉義市西區雙竹街12-48號,23.4849945,120.4388116,竹圍里,2015/3/1
10403(實價),住宅大樓,嘉義市嘉義市友孝路271~300號,15.3,3房/2廳/2衛,10 /共12層,33.6,4.03,--,#NAME?,9.8,330萬,600台灣嘉義市西區友孝路300號,23.4879919,120.4353601,保安里,2015/3/1
10403(實價),住宅大樓,嘉義市嘉義市自由路481~510號,20.8,2房/1廳/1衛,12 /共16層,28.15,2.32,--,#NAME?,9.8,275萬,600台灣嘉義市西區自由路510號,23.4930581,120.4317377,保生里,2015/3/1
10403(實價),住宅大樓,嘉義市嘉義市八德路301~330號,20.3,3房/2廳/2衛,10 /共16層,34.58,3.74,--,#NAME?,9,310萬,600台灣嘉義市西區八德路330號,23.4912488,120.4302424,保安里,2015/3/1
10403(實價),住宅大樓,嘉義市嘉義市博東路151~180號,17,3房/2廳/2衛,1 /共22層,44.63,5.6,--,#NAME?,9,400萬,600台灣嘉義市東區博東路80-112號,23.4908563,120.4605339,太平里,2015/3/1
10403(實價),住宅大樓,嘉義市嘉義市志昇街1~30號,10.3,3房/2廳/2衛,13 /共14層,55.55,11.43,--,#NAME?,9,500萬,600台灣嘉義市西區仁愛路159巷22號,23.4689729,120.4422175,自強里,2015/3/1
10403(實價),住宅大樓,嘉義市嘉義市玉山路240巷1~30號,20.7,2房/1廳/1衛,6 /共12層,19.93,1.72,--,#NAME?,9,180萬,600台灣嘉義市西區玉山路1號,23.473261,120.4319371,磚瑤里,2015/3/1
10403(實價),華廈,嘉義市嘉義市永福三街1~30號,22.3,3房/1廳/2衛,2 /共7層,27.68,6.48,--,#NAME?,9,250萬,600台灣嘉義市西區永福三街30號,23.4736996,120.4249398,磚?里,2015/3/1
10404(實價),透天厝,嘉義市嘉義市大富三街91~120號,8.3,4房/2廳/5衛,1 /共4層,68.78,27.84,--,#NAME?,10.2,700萬,600台灣嘉義市西區大富三街68號,23.4636676,120.4138706,劉厝里,2015/4/1
10404(實價),住宅大樓(含車位),嘉義市嘉義市臺斗街31~60號,15.8,3房/2廳/2衛,8 /共12層,38.16,6.27,--,#NAME?,10.2,390萬,600台灣嘉義市東區台斗街31號,23.4909592,120.4514337,中庄里,2015/4/1
10404(實價),華廈,嘉義市嘉義市和平路271~300號,19.9,0房/0廳/1衛,3 /共9層,11.76,1.38,--,#NAME?,10.2,120萬,600台灣嘉義市東區和平路269號,23.4800056,120.4567169,華南里,2015/4/1
10404(實價),住宅大樓,嘉義市嘉義市新生路571~600號,19.6,2房/2廳/2衛,5 /共12層,29.94,4.03,--,#NAME?,10.2,305萬,600台灣嘉義市東區新生路564-568號,23.4920074,120.4581246,太平里,2015/4/1
10404(實價),華廈,嘉義市嘉義市南京路20巷31~60號,20.1,3房/2廳/2衛,5 /共10層,37.01,6.56,--,#NAME?,10.3,380萬,600台灣嘉義市西區南京路20巷19-57號,23.4566788,120.4425104,獅子里,2015/4/1
10404(實價),透天厝,嘉義市嘉義市吳鳳南路188巷1~30號,39.7,2房/1廳/1衛,1 /共2層,23.13,16.03,--,#NAME?,10.3,238萬,600台灣嘉義市東區吳鳳南路30號,23.4712666,120.4539625,豐年里,2015/4/1
10404(實價),透天厝,嘉義市嘉義市藝術新?31~60號,24.5,3房/3廳/2衛,1 /共4層,67.53,42.05,--,#NAME?,10.4,700萬,600台灣嘉義市西區合江街197號,23.492233,120.4389275,新厝里,2015/4/1
10404(實價),套房,嘉義市嘉義市廣州街91~120號,24.4,1房/1廳/1衛,6 /共7層,11.02,2.14,--,#NAME?,10.4,115萬,600台灣嘉義市西區廣州街120號,23.4627158,120.4331098,福民里,2015/4/1
10404(實價),住宅大樓(含車位),嘉義市嘉義市興達路592巷1~30號,21.8,3房/2廳/2衛,10 /共12層,33.57,4.15,--,#NAME?,10.4,350萬,600台灣嘉義市西區興達路1號,23.4891942,120.4455982,湖邊里,2015/4/1
10404(實價),住宅大樓,嘉義市嘉義市安樂街61~90號,15.3,3房/2廳/2衛,9 /共12層,44,6.75,--,#NAME?,10.4,456萬,600台灣嘉義市東區安樂街60-62號,23.4831185,120.4612216,中山里,2015/4/1
10404(實價),套房,嘉義市嘉義市中興路31~60號,26.6,1房/1廳/1衛,6 /共10層,11.43,1.03,--,#NAME?,10.5,120萬,600台灣嘉義市西區中興路21號,23.4803298,120.4392574,後驛里,2015/4/1
10404(實價),住宅大樓(含車位),嘉義市嘉義市新建街8巷1~30號,24.1,4房/2廳/2衛,6 /共11層,44.37,7.35,--,#NAME?,10.8,480萬,600台灣嘉義市西區新建街30號,23.4692478,120.4385538,垂楊里,2015/4/1
10404(實價),住宅大樓,嘉義市嘉義市民生南路55巷1~30號,18,3房/2廳/2衛,8 /共12層,38.42,4.63,--,#NAME?,10.9,420萬,600台灣嘉義市西區民生南路850巷1弄30號,23.4545835,120.4393273,湖內里,2015/4/1
10404(實價),華廈,嘉義市嘉義市國聖四街31~60號,17.8,3房/2廳/2衛,5 /共9層,39.29,6.71,--,#NAME?,10.9,430萬,600台灣嘉義市西區國聖四街30號,23.4862529,120.4294016,保福里,2015/4/1
10404(實價),套房,嘉義市嘉義市蘭井街301~330號,19.9,1房/1廳/1衛,6 /共12層,14.43,1.28,--,#NAME?,10,145萬,600台灣嘉義市西區蘭井街330號,23.4769852,120.4435899,書院里,2015/4/1
10404(實價),透天厝,嘉義市嘉義市興仁街10巷1~30號,22.4,4房/2廳/3衛,1 /共4層,45.25,21.78,--,#NAME?,11.1,502萬,600台灣嘉義市東區興仁街10巷30號,23.4571039,120.4641799,興仁里,2015/4/1
10404(實價),透天厝,嘉義市嘉義市北社尾路323巷31~60號,22.8,4房/2廳/4衛,1 /共4層,53.76,18.15,--,#NAME?,11.2,600萬,600台灣嘉義市西區北社尾路60號,23.4937241,120.4292108,保安里,2015/4/1
10404(實價),華廈,嘉義市嘉義市北榮街121~150號,24.3,3房/2廳/2衛,1 /共7層,279.56,36.98,--,#NAME?,11.4,3180萬,600台灣嘉義市西區北榮街78-82號,23.4807719,120.4478229,國華里,2015/4/1
10404(實價),華廈,嘉義市嘉義市嘉北街61~90號,24.5,3房/1廳/2衛,1 /共7層,62.35,14.22,--,#NAME?,11.5,720萬,600台灣嘉義市東區嘉北街90號,23.4940596,120.4536092,仁義里,2015/4/1
10404(實價),公寓,嘉義市嘉義市蘭州一街31~60號,31.2,4房/2廳/4衛,1 /共5層,51.74,22.01,--,#NAME?,11.6,600萬,600台灣嘉義市西區蘭州一街30號,23.4646565,120.4303722,車店里,2015/4/1
10404(實價),透天厝,嘉義市嘉義市大同路438巷36弄31~60號,12.9,4房/2廳/3衛,1 /共3層,53.53,34.75,--,#NAME?,11.7,625萬,600台灣嘉義市西區大同路438巷30弄31號,23.4762683,120.4162883,港坪里,2015/4/1
10404(實價),華廈,嘉義市嘉義市國華街121~150號,22.2,2房/1廳/1衛,3 /共6層,29.65,6.6,--,#NAME?,11.8,350萬,600台灣嘉義市西區國華街121號,23.4745766,120.4489619,文化里,2015/4/1
10404(實價),住宅大樓,嘉義市嘉義市圓福街118巷2弄121~150號,21.9,3房/2廳/2衛,6 /共15層,38.29,6.4,--,#NAME?,11,420萬,600台灣嘉義市東區圓福街118巷2弄108號,23.488141,120.467014,王田里,2015/4/1
10404(實價),華廈,嘉義市嘉義市忠義街3巷1~30號,20.3,0房/0廳/0衛,1 /共5層,6.18,1.58,--,#NAME?,12.1,75萬,600台灣嘉義市西區忠義街1號,23.4740467,120.4477428,新富里,2015/4/1
10404(實價),透天厝,嘉義市嘉義市新民路204巷1~30號,13.9,4房/3廳/5衛,1 /共4層,59.15,23.45,--,#NAME?,12.1,715萬,600台灣嘉義市西區新民路464-1號,23.4610542,120.4409805,光路里,2015/4/1
10404(實價),透天厝,嘉義市嘉義市忠孝北街31~60號,11.8,3房/2廳/3衛,1 /共3層,43.9,27.92,--,#NAME?,12.3,540萬,600台灣嘉義市東區忠孝北街112號,23.5166068,120.4467847,荖藤里,2015/4/1
10404(實價),透天厝,嘉義市嘉義市彌陀路225巷31~60號,43.4,3房/2廳/1衛,1 /共2層,19.57,19.36,--,#NAME?,12.3,240萬,600台灣嘉義市東區彌陀路225巷31號,23.4671473,120.4658971,芳草里,2015/4/1
10404(實價),透天厝,嘉義市嘉義市蘭州五街1~30號,29.4,3房/2廳/2衛,1 /共2層,33.77,25.41,--,#NAME?,12.4,420萬,600台灣嘉義市西區蘭州五街30號,23.4688354,120.4318083,車店里,2015/4/1
10404(實價),透天厝,嘉義市嘉義市北社尾路226巷61~90號,11.6,3房/2廳/3衛,1 /共3層,52.1,26.92,--,#NAME?,12.5,650萬,600台灣嘉義市西區北社尾路49號,23.4917998,120.4284371,保安里,2015/4/1
10404(實價),透天厝,嘉義市嘉義市後庄里林森東路321巷7弄1~30號,32.4,3房/2廳/2衛,1 /共2層,39.66,30.86,--,#NAME?,13.1,520萬,600台灣嘉義市東區林森東路321巷7弄1號,23.492798,120.470157,後庄里,2015/4/1
10404(實價),透天厝,嘉義市嘉義市新建街163巷1~30號,19.7,3房/2廳/3衛,1 /共4層,32.42,15.43,--,#NAME?,13.2,429萬,600台灣嘉義市西區新建街30號,23.4692478,120.4385538,垂楊里,2015/4/1
10404(實價),透天厝,嘉義市嘉義市立仁路10巷1~30號,3.5,25房/1廳/25衛,1 /共4層,174.68,90.15,--,#NAME?,13.2,2300萬,600台灣嘉義市東區立仁路141-1號,23.4641073,120.4622139,芳安里,2015/4/1
10404(實價),透天厝,嘉義市嘉義市吉林街1~30號,17,4房/3廳/4衛,1 /共4層,50.67,21.48,--,#NAME?,13.4,680萬,600台灣嘉義市西區吉林街1號,23.4936244,120.4376811,新厝里,2015/4/1
10404(實價),住宅大樓(含車位),嘉義市嘉義市世賢路一段601~630號,20.8,3房/2廳/3衛,1 /共12層,46.16,4.8,--,#NAME?,13.6,626萬,600台灣嘉義市西區世賢路一段601號,23.4921739,120.4303935,保安里,2015/4/1
10404(實價),透天厝,嘉義市嘉義市林森東路321巷12弄1~30號,32.5,3房/2廳/2衛,1 /共2層,32.2,24.5,--,#NAME?,13.7,440萬,600台灣嘉義市東區林森東路269巷1弄30號,23.4901012,120.4654374,新店里,2015/4/1
10404(實價),透天厝,嘉義市嘉義市過溪121~150號,37.3,4房/2廳/2衛,1 /共2層,27.03,19.66,--,#NAME?,13.7,370萬,600台灣嘉義市東區過溪91號,23.4530214,120.4563316,興村里,2015/4/1
10404(實價),透天厝,嘉義市嘉義市大同路438巷1弄1~30號,16.2,4房/2廳/3衛,1 /共3層,43.85,26.18,--,#NAME?,13.9,610萬,600台灣嘉義市西區大同路438巷1弄32號,23.4749078,120.4159637,港坪里,2015/4/1
10404(實價),透天厝,嘉義市嘉義市友愛路241~270號,14.7,0房/0廳/0衛,1 /共1層,17.95,62.62,--,#NAME?,138.1,2480萬,600台灣嘉義市西區友愛路237-239號,23.4839351,120.4336947,竹圍里,2015/4/1
10404(實價),透天厝,嘉義市嘉義市東義路109巷1~30號,0.5,4房/3廳/4衛,1 /共3層,63.13,27.83,--,#NAME?,13,820萬,600台灣嘉義市東區東義路109巷1號,23.4950314,120.4688871,後庄里,2015/4/1
10404(實價),透天厝,嘉義市嘉義市光正街12巷1~30號,31.7,3房/1廳/2衛,1 /共2層,34.13,38.12,--,#NAME?,14.2,486萬,600台灣嘉義市東區光正街1號,23.4673603,120.4695777,蘭潭里,2015/4/1
10404(實價),透天厝,嘉義市嘉義市八德路171巷1~30號,34.8,3房/2廳/2衛,1 /共2層,28.26,22.99,--,#NAME?,14.3,405萬,600台灣嘉義市西區八德路2號,23.4827934,120.4312086,竹圍里,2015/4/1
10404(實價),透天厝,嘉義市嘉義市仁愛路261巷31~60號,45.2,3房/2廳/2衛,1 /共2層,23.73,21.18,--,#NAME?,14.3,340萬,600台灣嘉義市西區仁愛路261巷13號,23.4716217,120.4417404,垂楊里,2015/4/1
10404(實價),透天厝,嘉義市嘉義市武昌街1~30號,5.3,4房/2廳/3衛,1 /共4層,64.26,26.62,--,#NAME?,14.3,920萬,600台灣嘉義市西區武昌街30號,23.4654734,120.433751,車店里,2015/4/1
10404(實價),透天厝,嘉義市嘉義市民生南路576巷1~30號,40.3,4房/2廳/4衛,1 /共2層,31.12,26.32,--,#NAME?,14.5,450萬,600台灣嘉義市西區民生南路850巷1弄30號,23.4545835,120.4393273,湖內里,2015/4/1
10404(實價),透天厝,嘉義市嘉義市蘭州三街31~60號,19.4,6房/2廳/7衛,1 /共4層,51.63,22.08,--,#NAME?,14.5,750萬,600台灣嘉義市西區廣州街255號,23.4651549,120.4300718,車店里,2015/4/1
10404(實價),透天厝,嘉義市嘉義市大義街1~30號,10.3,5房/2廳/3衛,1 /共4層,59.09,32.36,--,#NAME?,14.6,860萬,600台灣嘉義市西區大利街133-165號,23.4675671,120.4168715,劉厝里,2015/4/1
10404(實價),透天厝,嘉義市嘉義市林森東路617巷13弄1~30號,25,4房/2廳/4衛,1 /共2層,51.44,42.05,--,#NAME?,14.7,755萬,600台灣嘉義市東區林森東路269巷1弄30號,23.4901012,120.4654374,新店里,2015/4/1
10404(實價),透天厝,嘉義市嘉義市盧厝31~60號,4.8,4房/2廳/3衛,1 /共3層,65.45,61.28,--,#NAME?,14.7,960萬,600台灣嘉義市東區保義路60巷17號,23.5013395,120.4532965,後湖里,2015/4/1
10404(實價),透天厝,嘉義市嘉義市大同路635巷31~60號,0.2,4房/2廳/3衛,1 /共3層,57.42,29.74,--,#NAME?,14.8,850萬,600台灣嘉義市西區大同路11號,23.474944,120.4326618,磚?里,2015/4/1
10404(實價),透天厝,嘉義市嘉義市蘭州四街181~210號,22.5,5房/2廳/3衛,1 /共3層,50.31,29.34,--,#NAME?,15.2,763萬,600台灣嘉義市西區蘭州四街181號,23.4682176,120.4319309,車店里,2015/4/1
10404(實價),透天厝,嘉義市嘉義市吳鳳南路365巷271~300號,24.5,3房/3廳/3衛,1 /共2層,43.09,26.62,--,#NAME?,15.2,653萬,600台灣嘉義市東區吳鳳南路365巷300號,23.4641518,120.4591732,安寮里,2015/4/1
10404(實價),店面(店鋪),嘉義市嘉義市吳鳳南路121~150號,25.8,7房/3廳/4衛,1 /共4層,70.57,26.02,--,#NAME?,15.3,1080萬,600台灣嘉義市東區吳鳳南路521巷121號,23.4626204,120.4571605,安寮里,2015/4/1
10404(實價),透天厝,嘉義市嘉義市維新路160巷31~60號,40.5,5房/2廳/3衛,1 /共2層,29.23,26.02,--,#NAME?,15.4,450萬,600台灣嘉義市東區維新路160巷60號,23.4897933,120.4583963,太平里,2015/4/1
10404(實價),透天厝,嘉義市嘉義市中興路241~270號,28.6,6房/3廳/3衛,1 /共3層,77.64,32.37,--,#NAME?,15.5,1200萬,600台灣嘉義市西區中興路270號,23.4823524,120.4325298,竹圍里,2015/4/1
10404(實價),透天厝,嘉義市嘉義市永吉三街31~60號,0.5,4房/3廳/5衛,1 /共3層,61.28,35.09,--,#NAME?,15.5,950萬,600台灣嘉義市西區永吉三街31號,23.4917574,120.437275,保生里,2015/4/1
10404(實價),透天厝,嘉義市嘉義市五福街20巷25弄61~90號,38,3房/2廳/2衛,1 /共2層,27.07,22.08,--,#NAME?,15.5,420萬,600台灣嘉義市東區五福街20巷25弄29號,23.4869896,120.4697027,王田里,2015/4/1
10404(實價),透天厝,嘉義市嘉義市友忠路841~870號,45.3,4房/2廳/2衛,1 /共2層,26.18,20.87,--,#NAME?,15.7,410萬,600台灣嘉義市西區友忠路831號,23.4868482,120.4417367,重興里,2015/4/1
10404(實價),透天厝,嘉義市嘉義市北文街91~120號,8,3房/2廳/3衛,1 /共3層,50.23,30.1,--,#NAME?,15.9,800萬,600台灣嘉義市西區北文街91號,23.4957541,120.421982,北湖里,2015/4/1
10404(實價),透天厝,嘉義市嘉義市立仁路42巷1~30號,0.3,0房/0廳/0衛,1 /共4層,56.88,29.1,--,#NAME?,15.9,905萬,600台灣嘉義市東區立仁路141-1號,23.4641073,120.4622139,芳安里,2015/4/1
10404(實價),透天厝,嘉義市嘉義市紅毛埤91~120號,5.8,4房/3廳/3衛,1 /共3層,53.43,45.78,--,#NAME?,15.9,850萬,600台灣嘉義市東區紅毛埤119號,23.4604342,120.4847725,鹿寮里,2015/4/1
10404(實價),透天厝,嘉義市嘉義市紅毛埤121~150號,5.8,6房/3廳/5衛,1 /共3層,53.43,47.99,--,#NAME?,15,800萬,600台灣嘉義市東區紅毛埤122號,23.4608973,120.484404,鹿寮里,2015/4/1
10404(實價),透天厝,嘉義市嘉義市宣信街151~180號,39.1,3房/2廳/2衛,1 /共2層,32.39,19.66,--,#NAME?,16.1,520萬,600台灣嘉義市東區宣信街194-228號,23.4677553,120.4612433,芳安里,2015/4/1
10404(實價),透天厝,嘉義市嘉義市林森東路269巷38弄1~30號,37.8,2房/1廳/1衛,1 /共2層,24.53,36.6,--,#NAME?,16.3,400萬,600台灣嘉義市東區林森東路269巷1弄30號,23.4901012,120.4654374,新店里,2015/4/1
10404(實價),透天厝,嘉義市嘉義市軍輝路271~300號,0.2,4房/2廳/4衛,1 /共4層,67.18,37.21,--,#NAME?,16.4,1100萬,600台灣嘉義市東區軍輝路271號,23.4540098,120.4586287,興仁里,2015/4/1
10404(實價),透天厝,嘉義市嘉義市立仁路42巷1~30號,0.3,0房/0廳/0衛,1 /共4層,54.32,25.78,--,#NAME?,16.5,898萬,600台灣嘉義市東區立仁路141-1號,23.4641073,120.4622139,芳安里,2015/4/1
10404(實價),透天厝,嘉義市嘉義市立仁路31~60號,0.3,0房/0廳/0衛,1 /共4層,81.2,25.47,--,#NAME?,16.7,1360萬,600台灣嘉義市東區立仁路38號,23.4656274,120.4658786,芳草里,2015/4/1
10404(實價),透天厝,嘉義市嘉義市彌陀路70巷31~60號,35.3,4房/2廳/2衛,1 /共2層,32.76,29.95,--,#NAME?,16.8,550萬,600台灣嘉義市東區彌陀路70巷31號,23.4665745,120.46865,蘭潭里,2015/4/1
10404(實價),透天厝,嘉義市嘉義市溪興街6巷3弄1~30號,1.8,6房/2廳/6衛,1 /共5層,121.3,82.07,--,#NAME?,16.9,2050萬,600台灣嘉義市西區博愛路一段482巷30號,23.4864012,120.4425852,重興里,2015/4/1
10404(實價),透天厝,嘉義市嘉義市立仁路10巷1~30號,3.5,19房/1廳/19衛,1 /共4層,137.85,52.64,--,#NAME?,16,2200萬,600台灣嘉義市東區立仁路141-1號,23.4641073,120.4622139,芳安里,2015/4/1
10404(實價),透天厝,嘉義市嘉義市保義路108巷10弄1~30號,2.3,5房/3廳/4衛,1 /共3層,52.21,32.73,--,#NAME?,17.2,900萬,600台灣嘉義市東區保義路108巷25號,23.5017464,120.4536756,後湖里,2015/4/1
10404(實價),透天厝,嘉義市嘉義市北安路133巷1~30號,2.9,4房/2廳/3衛,1 /共4層,48.73,34.94,--,#NAME?,17.6,860萬,600台灣嘉義市西區北安路6號,23.4900819,120.4338322,保安里,2015/4/1
10404(實價),透天厝,嘉義市嘉義市保義路108巷10弄1~30號,2.3,6房/2廳/2衛,1 /共3層,52.49,32.13,--,#NAME?,17.7,930萬,600台灣嘉義市東區保義路108巷25號,23.5017464,120.4536756,後湖里,2015/4/1
10404(實價),透天厝,嘉義市嘉義市民族路871~900號,2.6,4房/1廳/3衛,1 /共3層,54.41,21.18,--,#NAME?,17.8,970萬,600台灣嘉義市西區民族路901號,23.4748286,120.4382463,永和里,2015/4/1
10404(實價),透天厝,嘉義市嘉義市北鎮街56巷1~30號,39.4,4房/2廳/3衛,1 /共2層,24.77,19.97,--,#NAME?,18.1,448萬,600台灣嘉義市西區北鎮街25巷21號,23.4883155,120.4322644,竹圍里,2015/4/1
10404(實價),透天厝,嘉義市嘉義市仁愛一街1~30號,10.3,4房/3廳/3衛,1 /共3層,54.81,21.18,--,#NAME?,18.2,1000萬,600台灣嘉義市西區仁愛一街20-48號,23.4676094,120.4419765,自強里,2015/4/1
10404(實價),透天厝,嘉義市嘉義市立仁路42巷1~30號,0.4,0房/0廳/0衛,1 /共4層,57.4,26.04,--,#NAME?,18.3,1050萬,600台灣嘉義市東區立仁路141-1號,23.4641073,120.4622139,芳安里,2015/4/1
10404(實價),透天厝,嘉義市嘉義市軍輝路271~300號,0.2,4房/2廳/4衛,1 /共4層,70.17,35.7,--,#NAME?,18.5,1300萬,600台灣嘉義市東區軍輝路271號,23.4540098,120.4586287,興仁里,2015/4/1
10404(實價),透天厝,嘉義市嘉義市友孝路61~90號,25.7,4房/1廳/1衛,1 /共3層,47.01,26.02,--,#NAME?,18.7,880萬,600台灣嘉義市西區友孝路70號,23.4811874,120.4356667,竹圍里,2015/4/1
10404(實價),透天厝,嘉義市嘉義市彌陀路201巷1~30號,0.6,4房/1廳/3衛,1 /共3層,50.87,31.46,--,#NAME?,18.8,956萬,600台灣嘉義市東區彌陀路201巷1號,23.4674994,120.4662627,芳草里,2015/4/1
10404(實價),透天厝,嘉義市嘉義市忠孝北街91~120號,3.2,5房/2廳/5衛,1 /共3層,73.21,49.61,--,#NAME?,19.1,1400萬,600台灣嘉義市東區忠孝北街122號,23.5165961,120.4464509,荖藤里,2015/4/1
10404(實價),透天厝,嘉義市嘉義市軍輝路271~300號,0.2,4房/2廳/4衛,1 /共4層,67.18,37.81,--,#NAME?,19.1,1280萬,600台灣嘉義市東區軍輝路271號,23.4540098,120.4586287,興仁里,2015/4/1
10404(實價),透天厝,嘉義市嘉義市福全街61~90號,2.9,3房/2廳/5衛,1 /共4層,77.82,42.27,--,#NAME?,19.9,1550萬,600台灣嘉義市西區福全街67號,23.478617,120.4311905,福全里,2015/4/1
10404(實價),透天厝,嘉義市嘉義市軍輝路271~300號,0.2,4房/2廳/4衛,1 /共4層,67.51,36.3,--,#NAME?,19,1280萬,600台灣嘉義市東區軍輝路271號,23.4540098,120.4586287,興仁里,2015/4/1
10404(實價),透天厝,嘉義市嘉義市五福街61~90號,27.8,4房/3廳/2衛,1 /共2層,47.05,55.21,--,#NAME?,20.4,958萬,600台灣嘉義市東區五福街90號,23.4876372,120.4708077,王田里,2015/4/1
10404(實價),透天厝,嘉義市嘉義市興業西路1~30號,39.4,8房/2廳/4衛,1 /共3層,50.33,13.92,--,#NAME?,20.5,1030萬,600台灣嘉義市西區興業西路30號,23.4686948,120.445471,致遠里,2015/4/1
10404(實價),透天厝,嘉義市嘉義市五福街165巷31~60號,40.4,3房/2廳/2衛,1 /共2層,32.85,28.74,--,#NAME?,20.6,675萬,600台灣嘉義市東區五福街165巷31號,23.4880429,120.4676764,王田里,2015/4/1
10404(實價),透天厝,嘉義市嘉義市興業東路62巷31~60號,49.8,3房/2廳/2衛,1 /共2層,16.43,19.36,--,#NAME?,20.7,340萬,600台灣嘉義市東區興業東路62巷31號,23.468806,120.455445,安業里,2015/4/1
10404(實價),透天厝,嘉義市嘉義市蘭州四街31~60號,0.7,5房/2廳/5衛,1 /共3層,51.64,25.11,--,#NAME?,20.9,1080萬,600台灣嘉義市西區蘭州四街37號,23.4656285,120.4296491,車店里,2015/4/1
10404(實價),透天厝,嘉義市嘉義市友忠路811~840號,7.7,4房/2廳/4衛,1 /共4層,55.89,28.74,--,#NAME?,21.6,1208萬,600台灣嘉義市西區友忠路811號,23.486436,120.4413937,重興里,2015/4/1
10404(實價),透天厝,嘉義市嘉義市立仁路301~330號,7.8,4房/3廳/4衛,1 /共4層,72.68,39.02,--,#NAME?,21.7,1580萬,600台灣嘉義市東區立仁路330號,23.463718,120.46033,頂寮里,2015/4/1
10404(實價),透天厝,嘉義市嘉義市義教街613巷1~30號,24.4,4房/2廳/2衛,1 /共3層,20.42,22.99,--,#NAME?,25.4,518萬,600台灣嘉義市東區義教街613巷27號,23.4974333,120.4573681,頂庄里,2015/4/1
10404(實價),透天厝,嘉義市嘉義市忠孝路361~390號,8.8,4房/2廳/6衛,1 /共4層,83.92,31.16,--,#NAME?,25.8,2168萬,600台灣嘉義市東區忠孝路106號,23.4913384,120.4531722,,2015/4/1
10404(實價),透天厝,嘉義市嘉義市民生南路403巷52弄1~30號,17.9,5房/2廳/6衛,1 /共4層,60.57,26.62,--,#NAME?,3.5,210萬,600台灣嘉義市西區民生南路850巷1弄30號,23.4545835,120.4393273,湖內里,2015/4/1
10404(實價),透天厝,嘉義市嘉義市軍輝路114巷1~30號,39.1,4房/2廳/2衛,1 /共2層,26.28,22.08,--,#NAME?,3.7,96萬,600台灣嘉義市東區軍輝路91巷1號,23.4560228,120.4618719,興仁里,2015/4/1
10404(實價),透天厝,嘉義市嘉義市義教西路31~60號,1.3,4房/2廳/5衛,1 /共3層,59.57,29.65,--,#NAME?,30.2,1800萬,600台灣嘉義市東區義教西路60號,23.4938563,120.4665784,新店里,2015/4/1
10404(實價),店面(店鋪),嘉義市嘉義市八德路91~120號,13.4,0房/0廳/0衛,1 /共2層,88.29,72.6,--,#NAME?,31.6,2788萬,600台灣嘉義市西區八德路91號,23.4848029,120.4306181,保福里,2015/4/1
10404(實價),公寓,嘉義市嘉義市彌陀路31~60號,7.1,1房/0廳/1衛,2 /共4層,2.53,1.59,--,#NAME?,31.6,80萬,600台灣嘉義市東區彌陀路26號,23.4657296,120.4680298,短竹里,2015/4/1
10404(實價),公寓,嘉義市嘉義市彌陀路31~60號,7.1,1房/0廳/1衛,2 /共4層,2.53,1.59,--,#NAME?,31.6,80萬,600台灣嘉義市東區彌陀路26號,23.4657296,120.4680298,短竹里,2015/4/1
10404(實價),透天厝,嘉義市嘉義市友愛路61~90號,19.5,5房/2廳/2衛,1 /共3層,138.31,76.53,--,#NAME?,32.5,4500萬,600台灣嘉義市西區友愛路126號,23.47856,120.4343139,福全里,2015/4/1
10404(實價),店面(店鋪),嘉義市嘉義市垂楊路541~570號,45,2房/1廳/2衛,1 /共2層,31.88,16.03,--,#NAME?,34.5,1100萬,600台灣嘉義市西區垂楊路537號,23.472892,120.4411172,垂楊里,2015/4/1
10404(實價),透天厝,嘉義市嘉義市博愛路一段301~330號,47.2,3房/2廳/2衛,1 /共1層,25.01,29.34,--,#NAME?,36,900萬,600台灣嘉義市西區博愛路一段301號,23.4864542,120.4439797,北榮里,2015/4/1
10404(實價),店面(店鋪),嘉義市嘉義市興業西路361~390號,2.8,12房/2廳/12衛,1 /共4層,146.72,55.36,--,#NAME?,39.4,5775萬,600台灣嘉義市西區興業西路364-368號,23.4677307,120.4372311,車店里,2015/4/1
10404(實價),華廈(含車位),嘉義市嘉義市竹子腳1~30號,22.7,2房/2廳/1衛,7 /共10層,35.56,5.66,--,#NAME?,4.2,150萬,600台灣嘉義市西區竹子腳巷21號,23.4943783,120.3974321,竹村里,2015/4/1
10404(實價),透天厝,嘉義市嘉義市溪興街231巷24弄31~60號,25.2,8房/2廳/4衛,1 /共4層,131.69,52.94,--,#NAME?,4.6,600萬,600台灣嘉義市東區溪興街231巷24弄46號,23.4525425,120.4554678,興村里,2015/4/1
10404(實價),套房,嘉義市嘉義市民族路601~630號,22.5,1房/1廳/1衛,7 /共10層,12.73,1.49,--,#NAME?,4.7,60萬,600台灣嘉義市西區民族路630號,23.4756659,120.445173,西榮里,2015/4/1
10404(實價),華廈,嘉義市嘉義市大雅路一段181~210號,18.9,2房/1廳/1衛,6 /共10層,17.05,2.51,--,#NAME?,4.7,80萬,600台灣嘉義市東區大雅路一段209號,23.4808356,120.4997334,盧厝里,2015/4/1
10404(實價),公寓,嘉義市嘉義市仁義新村31~60號,32.9,3房/2廳/1衛,5 /共5層,25.16,12.9,--,#NAME?,4.8,120萬,600台灣嘉義市西區31,23.4699693,120.4487861,育英里,2015/4/1
10404(實價),華廈,嘉義市嘉義市中興路31~60號,26.6,1房/0廳/1衛,10 /共10層,157.27,14.78,--,#NAME?,5.2,816萬,600台灣嘉義市西區中興路21號,23.4803298,120.4392574,後驛里,2015/4/1
10404(實價),套房,嘉義市嘉義市小雅路331~360號,21.8,1房/0廳/1衛,9 /共12層,8.6,1.09,--,#NAME?,5.2,45萬,600台灣嘉義市東區小雅路250號,23.4745693,120.4736369,蘭潭里,2015/4/1
10404(實價),華廈,嘉義市嘉義市嘉南街1~30號,22.8,4房/1廳/2衛,3 /共7層,48.45,9.12,--,#NAME?,5.2,250萬,600台灣嘉義市東區嘉南街39號,23.4925875,120.4553169,仁義里,2015/4/1
10404(實價),透天厝,嘉義市嘉義市北港路746巷151~180號,21.5,6房/2廳/2衛,1 /共4層,66.22,26.47,--,#NAME?,5.3,350萬,600台灣嘉義市西區北港路180號,23.4767564,120.436022,福全里,2015/4/1
10404(實價),透天厝,嘉義市嘉義市盧義路335巷61~90號,37.8,3房/1廳/1衛,1 /共2層,22.87,22.39,--,#NAME?,5.3,122萬,600台灣嘉義市東區東義路93巷20-95號,23.494035,120.4687597,後庄里,2015/4/1
10404(實價),華廈(含車位),嘉義市嘉義市遠東街151~180號,21.9,2房/1廳/1衛,9 /共9層,30.54,3.27,--,#NAME?,5.6,170萬,600台灣嘉義市西區遠東街151號,23.4844444,120.4350668,竹圍里,2015/4/1
10404(實價),套房,嘉義市嘉義市小雅路181~210號,21.8,1房/1廳/1衛,4 /共16層,14.56,1.76,--,#NAME?,5.6,82萬,600台灣嘉義市東區小雅路185號,23.4726044,120.4740688,蘭潭里,2015/4/1
10404(實價),透天厝,嘉義市嘉義市保安一路351巷1~30號,34.6,3房/2廳/2衛,1 /共2層,34.39,34.49,--,#NAME?,5.8,200萬,600台灣嘉義市西區世賢路一段592巷1號,23.4941011,120.4303856,保安里,2015/4/1
10404(實價),公寓,嘉義市嘉義市忠孝路301~330號,26.4,3房/2廳/2衛,5 /共5層,33.9,9.87,--,#NAME?,5.8,195萬,600台灣嘉義市東區忠孝路106號,23.4913384,120.4531722,,2015/4/1
10404(實價),透天厝,嘉義市嘉義市民生南路463巷16弄1~30號,37.1,3房/1廳/2衛,1 /共2層,33.17,32.37,--,#NAME?,5.9,196萬,600台灣嘉義市西區民生南路850巷1弄30號,23.4545835,120.4393273,湖內里,2015/4/1
10404(實價),套房,嘉義市嘉義市小雅路331~360號,21.8,2房/2廳/2衛,6 /共12層,18.1,2.3,--,#NAME?,6.4,115萬,600台灣嘉義市東區小雅路250號,23.4745693,120.4736369,蘭潭里,2015/4/1
10404(實價),住宅大樓,嘉義市嘉義市小雅路331~360號,21.8,1房/0廳/1衛,2 /共12層,8.07,1.03,--,#NAME?,6.4,52萬,600台灣嘉義市東區小雅路250號,23.4745693,120.4736369,蘭潭里,2015/4/1
10404(實價),華廈,嘉義市嘉義市安和街31~60號,21.5,1房/1廳/1衛,3 /共6層,9.4,1.9,--,#NAME?,6.4,60萬,600台灣嘉義市東區安和街31號,23.475988,120.4583987,朝陽里,2015/4/1
10404(實價),透天厝,嘉義市嘉義市軍輝路142巷1~30號,38.2,4房/2廳/2衛,1 /共2層,23.58,20.57,--,#NAME?,6.4,150萬,600台灣嘉義市東區軍輝路142巷5號,23.4565157,120.4612989,興仁里,2015/4/1
10404(實價),華廈,嘉義市嘉義市永康三街1~30號,22.8,3房/2廳/2衛,7 /共7層,50.31,7.63,--,#NAME?,6.4,320萬,600台灣嘉義市西區永康三街1號,23.4755222,120.425434,磚?里,2015/4/1
10404(實價),住宅大樓,嘉義市嘉義市博愛路二段151~180號,16,1房/0廳/1衛,5 /共14層,11.84,1.16,--,#NAME?,6.5,76萬,600台灣嘉義市西區博愛路二段133號,23.4815231,120.4398559,,2015/4/1
10404(實價),華廈,嘉義市嘉義市新民路186巷31~60號,21.4,2房/1廳/1衛,1 /共6層,25.35,5.51,--,#NAME?,6.5,165萬,600台灣嘉義市西區新民路186巷60號,23.4547757,120.4372869,湖內里,2015/4/1
10404(實價),住宅大樓,嘉義市嘉義市小雅路181~210號,21.8,0房/0廳/0衛,8 /共16層,11.82,1.4,--,#NAME?,6.7,79萬,600台灣嘉義市東區小雅路185號,23.4726044,120.4740688,蘭潭里,2015/4/1
10404(實價),套房,嘉義市嘉義市蘭井街151~180號,24.3,1房/1廳/1衛,6 /共6層,11.39,2.04,--,#NAME?,6.7,76萬,600台灣嘉義市東區蘭井街155號,23.4775913,120.4516521,中央里,2015/4/1
10404(實價),公寓,嘉義市嘉義市上海路91~120號,31.2,3房/1廳/1衛,5 /共5層,26.39,8.71,--,#NAME?,6.8,180萬,600台灣嘉義市西區上海路120號,23.4655479,120.432025,車店里,2015/4/1
10404(實價),透天厝,嘉義市嘉義市芳安里宣信街151~180號,39.3,3房/2廳/2衛,1 /共2層,25.74,14.22,--,#NAME?,6.9,176萬,600台灣嘉義市東區宣信街194-228號,23.4677553,120.4612433,芳安里,2015/4/1
10404(實價),公寓,嘉義市嘉義市重興里博愛路一段496巷1~30號,28.4,3房/2廳/2衛,3 /共5層,32.09,8.35,--,#NAME?,6.9,220萬,600台灣嘉義市西區博愛路一段482巷30號,23.4864012,120.4425852,重興里,2015/4/1
10404(實價),辦公商業大樓,嘉義市嘉義市民生南路55巷1~30號,18,7房/0廳/7衛,12 /共12層,435.14,61.07,--,#NAME?,7.2,3152萬,600台灣嘉義市西區民生南路850巷1弄30號,23.4545835,120.4393273,湖內里,2015/4/1
10404(實價),住宅大樓,嘉義市嘉義市友孝路271~300號,15.4,3房/2廳/1衛,4 /共12層,28.95,3.2,--,#NAME?,7.3,210萬,600台灣嘉義市西區友孝路300號,23.4879919,120.4353601,保安里,2015/4/1
10404(實價),住宅大樓,嘉義市嘉義市小雅路361~390號,21.8,2房/1廳/1衛,5 /共12層,26.62,3.38,--,#NAME?,7.5,200萬,600台灣嘉義市東區小雅路382號,23.4765452,120.4703533,長竹里,2015/4/1
10404(實價),華廈,嘉義市嘉義市友愛路1~30號,21.8,2房/1廳/1衛,3 /共7層,22.22,3.76,--,#NAME?,7.6,170萬,600台灣嘉義市西區友愛路30號,23.4921539,120.4441036,湖邊里,2015/4/1
10404(實價),華廈(含車位),嘉義市嘉義市民生南路510巷91~120號,20.8,3房/2廳/2衛,1 /共6層,61.93,12.59,--,#NAME?,7.6,470萬,600台灣嘉義市西區民生南路99號,23.4711088,120.4472364,育英里,2015/4/1
10404(實價),華廈,嘉義市嘉義市雙竹街1~30號,21.4,2房/2廳/2衛,4 /共7層,34.4,6.86,--,#NAME?,7.6,260萬,600台灣嘉義市西區雙竹街12-48號,23.4849945,120.4388116,竹圍里,2015/4/1
10404(實價),住宅大樓,嘉義市嘉義市小雅路331~360號,21.8,1房/0廳/1衛,12 /共12層,8.5,1.09,--,#NAME?,7.6,65萬,600台灣嘉義市東區小雅路250號,23.4745693,120.4736369,蘭潭里,2015/4/1
10404(實價),華廈,嘉義市嘉義市彌陀路238巷59弄1~30號,25.2,3房/2廳/2衛,4 /共7層,37.01,7.14,--,#NAME?,7.6,280萬,600台灣嘉義市東區彌陀路238巷7弄5號,23.4740199,120.4632164,短竹里,2015/4/1
10404(實價),住宅大樓(含車位),嘉義市嘉義市博東路91~120號,17.1,4房/2廳/2衛,16 /共22層,58.4,5.62,--,#NAME?,7.7,448萬,600台灣嘉義市東區博東路24-80號,23.4905823,120.4615667,太平里,2015/4/1
10404(實價),華廈,嘉義市嘉義市北鎮街34巷1~30號,24.9,3房/2廳/2衛,5 /共6層,29.01,7.02,--,#NAME?,7.8,225萬,600台灣嘉義市西區北鎮街25巷21號,23.4883155,120.4322644,竹圍里,2015/4/1
10404(實價),住宅大樓,嘉義市嘉義市國賢一街31~60號,22.8,3房/2廳/2衛,7 /共15層,45.32,5.28,--,#NAME?,7.9,360萬,600台灣嘉義市西區國賢一街27號,23.4844746,120.4293913,保福里,2015/4/1
10404(實價),透天厝,嘉義市嘉義市漢口路271~300號,30.3,3房/1廳/1衛,1 /共2層,31.02,16.03,--,#NAME?,7.9,246萬,600台灣嘉義市西區漢口路271號,23.467045,120.4303779,車店里,2015/4/1
10404(實價),住宅大樓(含車位),嘉義市嘉義市興達路451~480號,20.6,3房/2廳/2衛,10 /共12層,52.12,6.83,--,#NAME?,7.9,410萬,600台灣嘉義市西區興達路480號,23.484986,120.431949,竹圍里,2015/4/1
10404(實價),住宅大樓,嘉義市嘉義市保建街31~60號,21.8,2房/2廳/2衛,10 /共12層,26.74,4.55,--,#NAME?,7.9,210萬,600台灣嘉義市東區保建街60號,23.5006199,120.4530035,後湖里,2015/4/1
10404(實價),住宅大樓,嘉義市嘉義市彌陀路151~180號,19.1,4房/2廳/2衛,20 /共20層,54.45,4.28,--,#NAME?,7.9,430萬,600台灣嘉義市東區彌陀路180號,23.4724381,120.4638868,短竹里,2015/4/1
10404(實價),透天厝,嘉義市嘉義市育人路778巷32弄1~30號,23.3,3房/2廳/2衛,1 /共3層,45.44,26.86,--,#NAME?,7,320萬,600台灣嘉義市西區育人路88號,23.4725877,120.4184826,港坪里,2015/4/1
10404(實價),華廈,嘉義市嘉義市永吉一街61~90號,20.2,3房/2廳/2衛,4 /共7層,41.46,7.06,--,#NAME?,8.1,335萬,600台灣嘉義市西區永吉一街23號,23.4931552,120.4377395,新厝里,2015/4/1
10404(實價),住宅大樓,嘉義市嘉義市新民路391~420號,20.8,3房/2廳/2衛,12 /共12層,44.63,6.87,--,#NAME?,8.1,360萬,600台灣嘉義市西區新民路420號,23.4602379,120.4407319,光路里,2015/4/1
10404(實價),住宅大樓,嘉義市嘉義市保建街31~60號,21.8,3房/2廳/2衛,7 /共12層,34.02,5.79,--,#NAME?,8.1,275萬,600台灣嘉義市東區保建街60號,23.5006199,120.4530035,後湖里,2015/4/1
10404(實價),住宅大樓(含車位),嘉義市嘉義市溪興街121~150號,22.3,3房/2廳/2衛,14 /共16層,53.99,4.09,--,#NAME?,8.1,440萬,600台灣嘉義市東區溪興街129號,23.4553335,120.4571337,興村里,2015/4/1
10404(實價),華廈(含車位),嘉義市嘉義市延平街241~270號,21.3,2房/1廳/1衛,5 /共8層,29.15,4.14,--,#NAME?,8.2,240萬,600台灣嘉義市西區延平街270號,23.4767659,120.4491366,文化里,2015/4/1
10404(實價),套房,嘉義市嘉義市博愛路一段482巷1~30號,20.3,1房/1廳/1衛,4 /共7層,9.34,1.29,--,#NAME?,8.2,77萬,600台灣嘉義市西區博愛路一段482巷30號,23.4864012,120.4425852,重興里,2015/4/1
10404(實價),華廈,嘉義市嘉義市文雅街116巷31~60號,18.8,2房/2廳/2衛,4 /共9層,39.03,6.24,--,#NAME?,8.2,320萬,600台灣嘉義市東區文雅街140巷11號,23.4840615,120.4853228,文雅里,2015/4/1
10404(實價),套房,嘉義市嘉義市文雅街140巷1~30號,18.8,1房/1廳/1衛,9 /共9層,14.68,2.3,--,#NAME?,8.2,120萬,600台灣嘉義市東區文雅街140巷11號,23.4840615,120.4853228,文雅里,2015/4/1
10404(實價),住宅大樓(含車位),嘉義市嘉義市忠孝路781~810號,19.5,2房/2廳/2衛,5 /共11層,30.34,5.08,--,#NAME?,8.2,250萬,600台灣嘉義市東區忠孝路782號,23.5097412,120.4461873,荖藤里,2015/4/1
10404(實價),住宅大樓,嘉義市嘉義市博東路151~180號,17.1,3房/2廳/2衛,2 /共22層,45.53,5.6,--,#NAME?,8.2,375萬,600台灣嘉義市東區博東路80-112號,23.4908563,120.4605339,太平里,2015/4/1
10404(實價),住宅大樓,嘉義市嘉義市永安街301~330號,10.5,4房/2廳/2衛,2 /共14層,60.24,10.55,--,#NAME?,8.3,500萬,600台灣嘉義市西區民生南路131號,23.4704025,120.4473033,育英里,2015/4/1
10404(實價),住宅大樓,嘉義市嘉義市彌陀路121~150號,19.1,3房/2廳/2衛,20 /共20層,39.59,2.96,--,#NAME?,8.3,330萬,600台灣嘉義市東區彌陀路121號,23.4666592,120.4667133,芳草里,2015/4/1
10404(實價),透天厝,嘉義市嘉義市信義路45巷1~30號,21.3,5房/1廳/3衛,1 /共3層,28.99,29.95,--,#NAME?,8.4,242萬,600台灣嘉義市西區信義路49-1號,23.4743187,120.4343596,西平里,2015/4/1
10404(實價),住宅大樓(含車位),嘉義市嘉義市興業西路181~210號,10.4,3房/2廳/2衛,7 /共14層,53.75,9.75,--,#NAME?,8.4,450萬,600台灣嘉義市西區興業西路136-140號,23.4681898,120.4421177,自強里,2015/4/1
10404(實價),住宅大樓,嘉義市嘉義市興達路511~540號,21,5房/2廳/2衛,1 /共12層,53.77,6.93,--,#NAME?,8.4,450萬,600台灣嘉義市西區興達路511號,23.4849587,120.4297621,保福里,2015/4/1
10404(實價),住宅大樓,嘉義市嘉義市金龍街31~60號,19.9,3房/2廳/2衛,7 /共15層,48.89,5.98,--,#NAME?,8.4,411萬,600台灣嘉義市東區金龍街33-35號,23.4789667,120.4707766,東川里,2015/4/1
10404(實價),套房,嘉義市嘉義市垂楊路841~870號,23.4,1房/1廳/1衛,4 /共12層,13.47,1.52,--,#NAME?,8.5,114萬,600台灣嘉義市西區垂楊路860號,23.4728286,120.4380429,永和里,2015/4/1
10404(實價),套房,嘉義市嘉義市垂楊路841~870號,23.4,1房/1廳/1衛,5 /共12層,13.47,1.52,--,#NAME?,8.5,114萬,600台灣嘉義市西區垂楊路860號,23.4728286,120.4380429,永和里,2015/4/1
10404(實價),套房,嘉義市嘉義市垂楊路841~870號,23.4,1房/1廳/1衛,7 /共12層,9.45,1.05,--,#NAME?,8.5,80萬,600台灣嘉義市西區垂楊路860號,23.4728286,120.4380429,永和里,2015/4/1
10404(實價),套房,嘉義市嘉義市垂楊路841~870號,23.4,1房/1廳/1衛,7 /共12層,13.47,1.52,--,#NAME?,8.5,115萬,600台灣嘉義市西區垂楊路860號,23.4728286,120.4380429,永和里,2015/4/1
10404(實價),華廈,嘉義市嘉義市泰瑞二街61~90號,22.7,3房/2廳/2衛,6 /共7層,36.75,6.59,--,#NAME?,8.7,320萬,600台灣嘉義市西區泰山三街70號,23.4857978,120.4256421,福安里,2015/4/1
10404(實價),住宅大樓,嘉義市嘉義市彌陀路91~120號,19.1,3房/2廳/2衛,1 /共20層,57.32,5.26,--,#NAME?,8.7,500萬,600台灣嘉義市東區彌陀路120號,23.4672873,120.4670996,短竹里,2015/4/1
10404(實價),住宅大樓,嘉義市嘉義市八德路181~210號,21.3,3房/2廳/2衛,7 /共12層,31.87,3.95,--,#NAME?,8.8,282萬,600台灣嘉義市西區八德路174號,23.4871625,120.4306552,保福里,2015/4/1
10404(實價),住宅大樓,嘉義市嘉義市世賢路一段631~660號,20.8,3房/1廳/2衛,8 /共12層,31.8,2.93,--,#NAME?,8.8,280萬,600台灣嘉義市西區世賢路一段630號,23.4931556,120.4301178,保安里,2015/4/1
10404(實價),套房,嘉義市嘉義市興雅路91~120號,21.7,1房/1廳/1衛,3 /共9層,10.83,1.08,--,#NAME?,8.8,95萬,600台灣嘉義市西區興雅路91號,23.4828596,120.4330361,竹圍里,2015/4/1
10404(實價),住宅大樓,嘉義市嘉義市彌陀路91~120號,19.1,3房/2廳/2衛,1 /共20層,54.68,4.93,--,#NAME?,8.8,480萬,600台灣嘉義市東區彌陀路120號,23.4672873,120.4670996,短竹里,2015/4/1
10404(實價),透天厝,嘉義市嘉義市忠孝路511~540號,22.3,4房/2廳/3衛,1 /共4層,57,20.57,--,#NAME?,8.8,500萬,600台灣嘉義市東區縱貫公路500-512號,23.4935304,120.4527702,,2015/4/1
10404(實價),套房,嘉義市嘉義市玉山路240巷1~30號,20.8,1房/1廳/1衛,10 /共12層,16.86,2.33,--,#NAME?,8.9,150萬,600台灣嘉義市西區玉山路1號,23.473261,120.4319371,磚瑤里,2015/4/1
10404(實價),華廈,嘉義市嘉義市西區自強街195巷31~60號,19.5,3房/2廳/2衛,7 /共7層,36.24,6.57,--,#NAME?,8,290萬,600台灣嘉義市西區自強街195巷27號,23.464458,120.4203273,劉厝里,2015/4/1
10404(實價),套房,嘉義市嘉義市興雅路91~120號,21.7,1房/1廳/1衛,3 /共9層,11.25,1.18,--,#NAME?,8,90萬,600台灣嘉義市西區興雅路91號,23.4828596,120.4330361,竹圍里,2015/4/1
10404(實價),套房,嘉義市嘉義市建成街181~210號,23.8,1房/1廳/1衛,4 /共6層,15.04,3.12,--,#NAME?,8,120萬,600台灣嘉義市西區建成街195號,23.4687551,120.4375142,車店里,2015/4/1
10404(實價),住宅大樓,嘉義市嘉義市蘭井街331~360號,19.4,3房/1廳/2衛,8 /共16層,40.43,4.95,--,#NAME?,9.1,368萬,600台灣嘉義市西區蘭井街260號,23.4771987,120.4459214,西榮里,2015/4/1
10404(實價),透天厝,嘉義市嘉義市荖藤里1鄰荖藤宅1~30號,32.9,3房/2廳/2衛,1 /共2層,37.23,26.02,--,#NAME?,9.1,337萬,600台灣嘉義市東區20,23.5088651,120.4446987,荖藤里,2015/4/1
10404(實價),住宅大樓,嘉義市嘉義市彌陀路91~120號,19.1,3房/2廳/2衛,1 /共20層,53.01,4.61,--,#NAME?,9.1,480萬,600台灣嘉義市東區彌陀路120號,23.4672873,120.4670996,短竹里,2015/4/1
10404(實價),華廈,嘉義市嘉義市新民路707巷1~30號,17.9,1房/0廳/1衛,6 /共7層,13.06,2.32,--,#NAME?,9.2,120萬,600台灣嘉義市西區新民路707巷2號,23.4690412,120.4395523,垂楊里,2015/4/1
10404(實價),住宅大樓,嘉義市嘉義市文雅街116巷31~60號,18.8,3房/2廳/2衛,7 /共9層,37.85,6.08,--,#NAME?,9.2,350萬,600台灣嘉義市東區文雅街140巷11號,23.4840615,120.4853228,文雅里,2015/4/1
